SCHOOL_YEAR,SCHOOL_NUMBER,SCHOOL_NAME,DISTRICT_NUMBER,DISTRICT_NAME,PUBLIC_OR_INDEPENDENT,STREET_ADDRESS,PHYSICAL_ADDRESS_CITY,FACILTY_TYPE,SCHOOL_EDUCATION_LEVEL,HAS_CORE_FRENCH,HAS_EARLY_FRENCH_IMMERSION,HAS_LATE_FRENCH_IMMERSION,HAS_PROG_FRANCOPHONE,SCHOOL_LATITUDE,SCHOOL_LONGITUDE
2019/2020,501007,Jaffray Elem-Jr Secondary,005,Southeast Kootenay,Public School,PO Box 378,Jaffray                       ,Standard School                         ,ELEMENTARY JR SECONDARY,YES,NO,NO,NO,49.37241741,-115.3007698
2019/2020,501009,Isabella Dicken Elementary,005,Southeast Kootenay,Public School,PO Box 1559,Fernie                        ,Standard School                         ,ELEMENTARY,YES,YES,YES,NO,49.51045198,-115.0550843
2019/2020,501010,Frank J Mitchell Elementary,005,Southeast Kootenay,Public School,PO Box 345,Sparwood                      ,Standard School                         ,ELEMENTARY,YES,NO,NO,NO,49.7361573,-114.8928227
2019/2020,501017,Rocky Mountain Elementary,005,Southeast Kootenay,Public School,PO Box 460,Elkford                       ,Standard School                         ,ELEMENTARY,YES,NO,NO,NO,50.00768512,-114.9334624
2019/2020,502001,Mount Baker Secondary,005,Southeast Kootenay,Public School,1410 Baker St,Cranbrook                     ,Standard School                         ,SECONDARY,YES,YES,NO,NO,49.51267668,-115.7608426
2019/2020,502011,Laurie Middle School,005,Southeast Kootenay,Public School,1808 2nd St S,Cranbrook                     ,Standard School                         ,MIDDLE SCHOOL,YES,NO,NO,NO,49.50894361,-115.75566
2019/2020,502023,Amy Woodland Elementary,005,Southeast Kootenay,Public School,911 6th St S,Cranbrook                     ,Standard School                         ,ELEMENTARY,YES,NO,NO,NO,49.5025578,-115.7677916
2019/2020,502024,T M Roberts Elementary,005,Southeast Kootenay,Public School,10 Wattsville Rd,Cranbrook                     ,Standard School                         ,ELEMENTARY,YES,YES,NO,NO,49.50399783,-115.778848
2019/2020,502028,Gordon Terrace Elementary,005,Southeast Kootenay,Public School,1200 5th Ave S,Cranbrook                     ,Standard School                         ,ELEMENTARY,YES,NO,NO,NO,49.4965489,-115.7732592
2019/2020,502029,Highlands Elementary,005,Southeast Kootenay,Public School,3300 7th St S,Cranbrook                     ,Standard School                         ,ELEMENTARY,YES,NO,NO,NO,49.50272353,-115.7351243
2019/2020,502030,Pinewood Elementary,005,Southeast Kootenay,Public School,40 Pinewood Ave W,Cranbrook                     ,Standard School                         ,ELEMENTARY,YES,NO,NO,NO,49.51411158,-115.774822
2019/2020,502031,Steeples Elementary,005,Southeast Kootenay,Public School,700 24th Ave N,Cranbrook                     ,Standard School                         ,ELEMENTARY,YES,NO,NO,NO,49.5181,-115.747
2019/2020,502032,Kootenay Orchards Elementary,005,Southeast Kootenay,Public School,1301 - 20th Ave S,Cranbrook                     ,Standard School                         ,ELEMENTARY,YES,NO,NO,NO,49.4957315,-115.7555554
2019/2020,505000,Kootenay Learning Campus (KLC),005,Southeast Kootenay,Public School,802 2nd Ave,Fernie                        ,Continuing Education                    ,SECONDARY,NO,NO,NO,NO,49.513593,-115.0531442
2019/2020,505018,Parkland Middle School,005,Southeast Kootenay,Public School,1115 2nd Ave S,Cranbrook                     ,Standard School                         ,MIDDLE SCHOOL,YES,YES,NO,NO,49.49647204,-115.7797287
2019/2020,505033,Elkford Elementary Secondary,005,Southeast Kootenay,Public School,PO Box 910,Elkford                       ,Standard School                         ,ELEMENTARY SECONDARY,YES,NO,NO,NO,50.00683982,-114.9306477
2019/2020,505034,Fernie Secondary,005,Southeast Kootenay,Public School,PO Box 370,Fernie                        ,Standard School                         ,ELEMENTARY SECONDARY,YES,YES,YES,NO,49.513593,-115.0531442
2019/2020,505035,Sparwood Secondary,005,Southeast Kootenay,Public School,PO Box 67,Sparwood                      ,Standard School                         ,ELEMENTARY SECONDARY,YES,NO,NO,NO,49.7357264,-114.8915519
2019/2020,596109,St Mary's Catholic Independent,005,Southeast Kootenay,Independent School,1701 5th St S,Cranbrook                     ,Standard School                         ,ELEMENTARY,YES,NO,NO,NO,49.50328547,-115.7573797
2019/2020,596640,Kootenay Christian Academy,005,Southeast Kootenay,Independent School,1200 Kootenay St N,Cranbrook                     ,Standard School                         ,ELEMENTARY JR SECONDARY,YES,NO,NO,NO,49.52338243,-115.7433671
2019/2020,596715,The Fernie Academy,005,Southeast Kootenay,Independent School,PO Box 2677 451 2nd Ave,Fernie                        ,Standard School                         ,ELEMENTARY SECONDARY,YES,YES,NO,NO,49.50282966,-115.0621569
2019/2020,597007,?A'q'amnik Primary School,005,Southeast Kootenay,Independent School,7500 Mission Rd,Cranbrook                     ,Standard School                         ,ELEMENTARY,NO,NO,NO,NO,49.583664,-115.754506
2019/2020,599078,Kootenay Educational Services,005,Southeast Kootenay,Public School,25 17th Ave N,Cranbrook                     ,Alternate Programs                      ,SECONDARY,NO,NO,NO,NO,49.51337185,-115.7581552
2019/2020,599156,Kootenay Discovery School,005,Southeast Kootenay,Public School,802 2nd Ave,Fernie                        ,Distributed Learning Programs           ,ELEMENTARY SECONDARY,NO,NO,NO,NO,49.513593,-115.0531442
2019/2020,603005,Marysville Elementary,006,Rocky Mountain,Public School,546 309 Ave,Kimberley                     ,Standard School                         ,ELEMENTARY,NO,NO,NO,NO,49.63475392,-115.9504518
2019/2020,603007,Lindsay Park Elementary,006,Rocky Mountain,Public School,602 Salmo St,Kimberley                     ,Standard School                         ,ELEMENTARY,NO,NO,NO,NO,49.6927192,-115.9831162
2019/2020,603008,Selkirk Secondary School,006,Rocky Mountain,Public School,405 Halpin St,Kimberley                     ,Standard School                         ,SECONDARY,YES,NO,NO,NO,49.68724493,-115.9798422
2019/2020,604007,Windermere Elementary,006,Rocky Mountain,Public School,4747 Government St,Windermere                    ,Standard School                         ,ELEMENTARY,YES,NO,NO,NO,50.46570877,-115.9861031
2019/2020,604011,Edgewater Elementary,006,Rocky Mountain,Public School,PO Box 69,Edgewater                     ,Standard School                         ,ELEMENTARY,YES,NO,NO,NO,50.6954222,-116.1374984
2019/2020,604012,J Alfred Laird Elementary,006,Rocky Mountain,Public School,1202 13th Avenue,Invermere                     ,Standard School                         ,ELEMENTARY,YES,NO,NO,NO,50.50414914,-116.0391436
2019/2020,604013,Martin Morigeau Elementary,006,Rocky Mountain,Public School,4891 Beatty Avenue PO BOX 69,Canal Flats                   ,Standard School                         ,ELEMENTARY,YES,NO,NO,NO,50.16106103,-115.8166756
2019/2020,604014,Eileen Madson Primary School,006,Rocky Mountain,Public School,2001 15th Ave,Invermere                     ,Standard School                         ,ELEMENTARY,NO,NO,NO,NO,50.49691115,-116.0407084
2019/2020,604015,David Thompson Secondary,006,Rocky Mountain,Public School,1535 14th St Unit 1 RR 4,Invermere                     ,Standard School                         ,SECONDARY,YES,NO,NO,NO,50.5022144,-116.0411422
2019/2020,606000,Continuing Ed SD 06,006,Rocky Mountain,Public School,Box 430,Invermere                     ,Continuing Education                    ,SENIOR SECONDARY,NO,NO,NO,NO,49.67132997,-115.9794335
2019/2020,606017,McKim Middle School,006,Rocky Mountain,Public School,689 Rotary Dr,Kimberley                     ,Standard School                         ,ELEMENTARY,YES,NO,NO,NO,49.68034662,-115.9801445
2019/2020,618003,Lady Grey Elementary,006,Rocky Mountain,Public School,PO Box 899,Golden                        ,Standard School                         ,ELEMENTARY,YES,YES,NO,NO,51.2956813,-116.9721455
2019/2020,618005,Golden Secondary,006,Rocky Mountain,Public School,PO Box 1350,Golden                        ,Standard School                         ,SECONDARY,YES,YES,NO,NO,51.2965518,-116.9496193
2019/2020,618007,Nicholson Elementary,006,Rocky Mountain,Public School,PO Box 331,Golden                        ,Standard School                         ,ELEMENTARY,YES,NO,NO,NO,51.24737311,-116.9089075
2019/2020,618008,Alexander Park Elementary,006,Rocky Mountain,Public School,PO Box 464,Golden                        ,Standard School                         ,ELEMENTARY,NO,NO,NO,NO,51.29548491,-116.9535451
2019/2020,696795,Kimberley Independent School,006,Rocky Mountain,Independent School,73 101 Ave,Kimberley                     ,Standard School                         ,ELEMENTARY,YES,NO,NO,NO,49.66553309,-115.9669948
2019/2020,699069,Golden Alternate School,006,Rocky Mountain,Public School,PO Box 1350,Golden                        ,Alternate Programs                      ,SECONDARY,NO,NO,NO,NO,51.2958808,-116.9661705
2019/2020,699086,Kimberley Alternate School,006,Rocky Mountain,Public School,405 Halpin St,Kimberley                     ,Alternate Programs                      ,SECONDARY,NO,NO,NO,NO,49.68268817,-115.9804626
2019/2020,699127,Open Doors Alternate Education,006,Rocky Mountain,Public School,PO Box 2613,Invermere                     ,Alternate Programs                      ,SECONDARY,NO,NO,NO,NO,50.5114683,-116.0307406
2019/2020,699157,Rocky Mountain Distributed Learning,006,Rocky Mountain,Public School,Box 430,Invermere                     ,Distributed Learning Programs           ,ELEMENTARY SECONDARY,NO,NO,NO,NO,49.67132997,-115.9794335
2019/2020,807004,Hume Elementary School,008,Kootenay Lake,Public School,310 Nelson Ave,Nelson                        ,Standard School                         ,ELEMENTARY,YES,NO,NO,NO,49.50037158,-117.2784926
2019/2020,807005,Trafalgar Middle School,008,Kootenay Lake,Public School,1201 Josephine St,Nelson                        ,Standard School                         ,ELEMENTARY JR SECONDARY,YES,YES,YES,NO,49.48737269,-117.2868145
2019/2020,807011,Salmo Elementary School,008,Kootenay Lake,Public School,PO Drawer 220,Salmo                         ,Standard School                         ,ELEMENTARY,YES,NO,NO,NO,49.18966004,-117.2754995
2019/2020,807012,Salmo Secondary,008,Kootenay Lake,Public School,PO Box 310,Salmo                         ,Standard School                         ,ELEMENTARY SECONDARY,YES,NO,NO,NO,49.190584,-117.2813587
2019/2020,807013,L V Rogers Secondary,008,Kootenay Lake,Public School,1002 Cottonwood St,Nelson                        ,Standard School                         ,SECONDARY,YES,YES,NO,NO,49.50153609,-117.2723473
2019/2020,807014,South Nelson Elementary,008,Kootenay Lake,Public School,814 Latimer St,Nelson                        ,Standard School                         ,ELEMENTARY,YES,NO,NO,NO,49.48948972,-117.2856372
2019/2020,807016,Blewett Elementary School,008,Kootenay Lake,Public School,2665 Blewett Rd,Nelson                        ,Standard School                         ,ELEMENTARY,YES,NO,NO,NO,49.4920102,-117.3686467
2019/2020,807018,Rosemont Elementary School,008,Kootenay Lake,Public School,1605 Crease Street,Nelson                        ,Standard School                         ,ELEMENTARY,YES,NO,NO,NO,49.48069488,-117.3024037
2019/2020,807025,Mount Sentinel Secondary,008,Kootenay Lake,Public School,PO Box 99,South Slocan                  ,Standard School                         ,ELEMENTARY SECONDARY,YES,NO,NO,NO,49.4463804,-117.5373076
2019/2020,807026,W.E. Graham Community School,008,Kootenay Lake,Public School,PO Box 10,Slocan                        ,Standard School                         ,ELEMENTARY JR SECONDARY,YES,NO,NO,NO,49.76347262,-117.470278
2019/2020,807033,Brent Kennedy Elementary,008,Kootenay Lake,Public School,PO Box 40,Crescent Valley               ,Standard School                         ,ELEMENTARY,YES,NO,NO,NO,49.44263986,-117.5453247
2019/2020,807034,Winlaw Elementary School,008,Kootenay Lake,Public School,PO Box 10,Winlaw                        ,Standard School                         ,ELEMENTARY,YES,NO,NO,NO,49.61341508,-117.5654459
2019/2020,807035,Redfish Elementary School,008,Kootenay Lake,Public School,265 Bryan Rd,Nelson                        ,Standard School                         ,ELEMENTARY,YES,NO,NO,NO,49.6134536,-117.0490073
2019/2020,886004,Adam Robertson Elementary,008,Kootenay Lake,Public School,PO Box 1549 421 9 Ave n,Creston                       ,Standard School                         ,ELEMENTARY,YES,NO,NO,NO,49.10020285,-116.5152956
2019/2020,886005,Jewett Elementary,008,Kootenay Lake,Public School,PO Box 39,Meadow Creek                  ,Standard School                         ,ELEMENTARY,YES,NO,NO,NO,50.24036719,-116.9762305
2019/2020,886006,Crawford Bay Elem-Secondary,008,Kootenay Lake,Public School,PO Box 100,Crawford Bay                  ,Standard School                         ,ELEMENTARY SECONDARY,YES,NO,NO,NO,49.68087767,-116.8290804
2019/2020,886007,Prince Charles Secondary,008,Kootenay Lake,Public School,223 18th Ave S,Creston                       ,Standard School                         ,SECONDARY,YES,NO,NO,NO,49.09443987,-116.5051821
2019/2020,886014,Canyon/Lister Elementary,008,Kootenay Lake,Public School,PO Box 959,Canyon                        ,Standard School                         ,ELEMENTARY,YES,NO,NO,NO,49.08179248,-116.4498963
2019/2020,886016,Homelinks - Creston,008,Kootenay Lake,Public School,PO Box 250,Creston                       ,Distributed Learning Programs           ,ELEMENTARY SECONDARY,YES,NO,NO,NO,49.08922483,-116.5129588
2019/2020,886018,J V Humphries Elem-Secondary,008,Kootenay Lake,Public School,PO Box 577,Kaslo                         ,Standard School                         ,ELEMENTARY SECONDARY,YES,NO,NO,NO,49.91218,-116.91124
2019/2020,886019,Erickson Elementary,008,Kootenay Lake,Public School,PO Box 180,Erickson                      ,Standard School                         ,ELEMENTARY,YES,NO,NO,NO,49.09096535,-116.4675454
2019/2020,896143,St Joseph School,008,Kootenay Lake,Independent School,523 Mill St,Nelson                        ,Standard School                         ,ELEMENTARY JR SECONDARY,YES,NO,NO,NO,49.48938195,-117.2907323
2019/2020,896220,Whole School,008,Kootenay Lake,Independent School,PO Box 240,Winlaw                        ,Standard School                         ,ELEMENTARY,YES,NO,NO,NO,49.60683957,-117.5673685
2019/2020,896449,Nelson Waldorf School,008,Kootenay Lake,Independent School,PO Box 165 STN Main,Nelson                        ,Standard School                         ,ELEMENTARY,YES,NO,NO,NO,49.46062192,-117.2855398
2019/2020,896710,Nelson Christian Community School,008,Kootenay Lake,Independent School,810 Tenth St,Nelson                        ,Standard School                         ,ELEMENTARY JR SECONDARY,YES,NO,NO,NO,49.5055444,-117.2683138
2019/2020,896726,Mormon Hills Elementary Secondary,008,Kootenay Lake,Independent School,876 Lyons Rd,Creston                       ,Standard School                         ,ELEMENTARY JR SECONDARY,NO,NO,NO,NO,49.01447257,-116.4315961
2019/2020,896749,CHEK-ABC,008,Kootenay Lake,Independent School,810 Tenth St,Nelson                        ,Distributed Learning Programs           ,ELEMENTARY SECONDARY,YES,NO,NO,NO,49.5055444,-117.2683138
2019/2020,896864,Kootenay Valley Christian School,008,Kootenay Lake,Independent School,1152 21 Hwy N,Creston                       ,Standard School                         ,ELEMENTARY JR SECONDARY,NO,NO,NO,NO,49.10825496,-116.5263681
2019/2020,897558,Yaqan Nukiy School,008,Kootenay Lake,Independent School,904 Simon Rd,Creston                       ,Standard School                         ,ELEMENTARY,NO,NO,NO,NO,49.0663,-116.515592
2019/2020,898001,Distance Ed School of the Kootenays,008,Kootenay Lake,Public School,811 Stanley St,Nelson                        ,Distributed Learning Programs           ,ELEMENTARY SECONDARY,NO,NO,NO,NO,49.48906368,-117.2922336
2019/2020,899178,Wildflower,008,Kootenay Lake,Public School,811 Stanley St,Nelson                        ,Standard School                         ,ELEMENTARY JR SECONDARY,YES,NO,NO,NO,49.48906368,-117.2922336
2019/2020,899225,REACH,008,Kootenay Lake,Public School,1004 Cottonwood St,Nelson                        ,Alternate Programs                      ,SECONDARY,NO,NO,NO,NO,49.48906368,-117.2922336
2019/2020,899291,Homelinks - Nelson,008,Kootenay Lake,Public School,814 Latimer St,Nelson                        ,Distributed Learning Programs           ,ELEMENTARY SECONDARY,YES,NO,NO,NO,49.48948972,-117.2856372
2019/2020,899292,Homelinks - Kaslo,008,Kootenay Lake,Public School,PO Box 577,Kaslo                         ,Distributed Learning Programs           ,ELEMENTARY JR SECONDARY,YES,NO,NO,NO,49.91218,-116.91124
2019/2020,899298,Sequoia Centre,008,Kootenay Lake,Public School,PO Box 99,South Slocan                  ,Alternate Programs                      ,SECONDARY,NO,NO,NO,NO,49.45019892,-117.5598163
2019/2020,1010002,Burton Elementary,010,Arrow Lakes,Public School,PO Box 3,Burton                        ,Standard School                         ,ELEMENTARY,NO,NO,NO,NO,49.99285486,-117.8758814
2019/2020,1010003,Edgewood Elementary,010,Arrow Lakes,Public School,PO Box 129,Edgewood                      ,Standard School                         ,ELEMENTARY,YES,NO,NO,NO,49.78137289,-118.146794
2019/2020,1010004,Nakusp Elementary,010,Arrow Lakes,Public School,PO Box 250,Nakusp                        ,Standard School                         ,ELEMENTARY,YES,NO,NO,NO,50.2442064,-117.803489
2019/2020,1010006,Nakusp Secondary,010,Arrow Lakes,Public School,PO Box 249,Nakusp                        ,Standard School                         ,SECONDARY,YES,NO,NO,NO,50.24427173,-117.8050931
2019/2020,1010011,Lucerne Elem-Secondary,010,Arrow Lakes,Public School,PO Box 130,New Denver                    ,Standard School                         ,ELEMENTARY SECONDARY,YES,NO,NO,NO,49.9926095,-117.3702659
2019/2020,1010012,Burton Academy School,010,Arrow Lakes,Public School,PO Box 249,Nakusp                        ,Standard School                         ,JUNIOR SECONDARY,NO,NO,NO,NO,49.99285486,-117.8758814
2019/2020,1099217,Arrow Lakes Distributed Learning,010,Arrow Lakes,Public School,Po Box 130,New Denver                    ,Distributed Learning Programs           ,ELEMENTARY SECONDARY,NO,NO,NO,NO,49.9926095,-117.3702659
2019/2020,1919003,Revelstoke Secondary,019,Revelstoke,Public School,Bag 5100,Revelstoke                    ,Standard School                         ,SECONDARY,YES,NO,NO,NO,50.9910745,-118.1988367
2019/2020,1919013,Columbia Park Elementary,019,Revelstoke,Public School,Bag 7200,Revelstoke                    ,Standard School                         ,ELEMENTARY,YES,NO,NO,NO,51.0145631,-118.2185754
2019/2020,1919015,Arrow Heights Elementary,019,Revelstoke,Public School,PO Bag 7400,Revelstoke                    ,Standard School                         ,ELEMENTARY,YES,NO,NO,NO,50.9769241,-118.1777034
2019/2020,1919016,Begbie View Elementary,019,Revelstoke,Public School,PO Bag 7100,Revelstoke                    ,Standard School                         ,ELEMENTARY,YES,NO,NO,NO,50.9921652,-118.202174
2019/2020,2009006,Kinnaird Elementary,020,Kootenay-Columbia,Public School,2273 10 Ave,Castlegar                     ,Standard School                         ,ELEMENTARY,YES,NO,NO,NO,49.28794865,-117.653505
2019/2020,2009010,Stanley Humphries Secondary,020,Kootenay-Columbia,Public School,720 7 Ave,Castlegar                     ,Standard School                         ,SECONDARY,YES,YES,NO,NO,49.3200625,-117.661008
2019/2020,2009011,Twin Rivers Elementary,020,Kootenay-Columbia,Public School,649 7 Ave,Castlegar                     ,Standard School                         ,ELEMENTARY,YES,YES,YES,NO,49.32092092,-117.6592113
2019/2020,2011005,Fruitvale Elementary,020,Kootenay-Columbia,Public School,1867 W Columbia Gdns Rd B580,Fruitvale                     ,Standard School                         ,ELEMENTARY,YES,NO,NO,NO,49.1119,-117.546
2019/2020,2011009,James L Webster Elementary,020,Kootenay-Columbia,Public School,395 Schofield Hwy,Trail                         ,Standard School                         ,ELEMENTARY,YES,NO,NO,NO,49.09578985,-117.7443085
2019/2020,2011012,J Lloyd Crowe Secondary,020,Kootenay-Columbia,Public School,1300 Frances Moran Rd,Trail                         ,Standard School                         ,SECONDARY,YES,YES,NO,NO,49.10215924,-117.6980923
2019/2020,2011014,Rossland Summit School,020,Kootenay-Columbia,Public School,Drawer 1269,Rossland                      ,Standard School                         ,ELEMENTARY JR SECONDARY,YES,YES,YES,NO,49.0807562,-117.7992667
2019/2020,2011015,Glenmerry Elementary,020,Kootenay-Columbia,Public School,3660 Carnation Dr,Trail                         ,Standard School                         ,ELEMENTARY,YES,NO,NO,NO,49.09888248,-117.6626554
2019/2020,2020021,Robson Community School,020,Kootenay-Columbia,Public School,PO Box 259,Robson                        ,Standard School                         ,ELEMENTARY,YES,NO,NO,NO,49.3354425,-117.6985053
2019/2020,2020023,Kootenay Columbia Secondary,020,Kootenay-Columbia,Public School,2001 Third Ave,Trail                         ,Standard School                         ,ELEMENTARY SECONDARY,NO,NO,NO,NO,49.09747688,-117.694185
2019/2020,2096098,St Michael's Elementary,020,Kootenay-Columbia,Independent School,1329 Fourth Ave,Trail                         ,Standard School                         ,ELEMENTARY,YES,NO,NO,NO,49.10147554,-117.7011838
2019/2020,2099137,Kootenay-Columbia Learning Centre,020,Kootenay-Columbia,Public School,2001 Third Ave,Trail                         ,Alternate Programs                      ,SECONDARY,NO,NO,NO,NO,49.09747688,-117.694185
2019/2020,2222000,Continuing Ed SD 22,022,Vernon,Public School,3033 30 St,Vernon                        ,Continuing Education                    ,SECONDARY,NO,NO,NO,NO,50.26627003,-119.2703377
2019/2020,2222001,Beairsto Elementary,022,Vernon,Public School,3302 27 St,Vernon                        ,Standard School                         ,ELEMENTARY,NO,YES,NO,NO,50.26665293,-119.2672552
2019/2020,2222002,Coldstream Elementary,022,Vernon,Public School,10104 Kalamalka Rd,Coldstream                    ,Standard School                         ,ELEMENTARY,YES,NO,NO,NO,50.22284068,-119.2328781
2019/2020,2222005,Cherryville Elementary,022,Vernon,Public School,108 North Fork Rd,Cherryville                   ,Standard School                         ,ELEMENTARY,YES,NO,NO,NO,50.243874,-118.6140151
2019/2020,2222006,Lavington Elementary,022,Vernon,Public School,9715 School Rd,Vernon                        ,Standard School                         ,ELEMENTARY,YES,NO,NO,NO,50.23111084,-119.1066412
2019/2020,2222007,W L Seaton Secondary,022,Vernon,Public School,2701 41 Ave,Vernon                        ,Standard School                         ,SECONDARY,YES,YES,NO,NO,50.2729109,-119.2679834
2019/2020,2222009,Harwood Elementary,022,Vernon,Public School,4320 20 St,Vernon                        ,Standard School                         ,ELEMENTARY,YES,YES,YES,NO,50.27721417,-119.2612638
2019/2020,2222010,J W Inglis Elementary,022,Vernon,Public School,PO Box 369,Lumby                         ,Standard School                         ,ELEMENTARY,YES,NO,NO,NO,50.25331827,-118.966667
2019/2020,2222012,Silver Star Elementary,022,Vernon,Public School,1401-35 Ave,Vernon                        ,Standard School                         ,ELEMENTARY,YES,NO,NO,NO,50.26689808,-119.2494792
2019/2020,2222013,Okanagan Landing Elementary,022,Vernon,Public School,7322 Grant Rd,Vernon                        ,Standard School                         ,ELEMENTARY,YES,NO,NO,NO,50.2369,-119.344
2019/2020,2222014,B X Elementary,022,Vernon,Public School,5849 Silver Star Rd,Vernon                        ,Standard School                         ,ELEMENTARY,YES,NO,NO,NO,50.28976301,-119.2225069
2019/2020,2222015,Hillview Elementary,022,Vernon,Public School,1822 Francis St,Vernon                        ,Standard School                         ,ELEMENTARY,YES,NO,NO,NO,50.25514199,-119.2377336
2019/2020,2222017,Vernon Secondary,022,Vernon,Public School,2100-15th St,Vernon                        ,Standard School                         ,SECONDARY,YES,NO,NO,NO,50.25761457,-119.2525325
2019/2020,2222019,Mission Hill Elementary,022,Vernon,Public School,1510 36 St,Vernon                        ,Standard School                         ,ELEMENTARY,YES,NO,NO,NO,50.25387726,-119.2826722
2019/2020,2222020,Alexis Park Elementary,022,Vernon,Public School,4205 35 St,Vernon                        ,Standard School                         ,ELEMENTARY,YES,YES,NO,NO,50.2738,-119.279
2019/2020,2222022,Kalamalka Secondary,022,Vernon,Public School,7900 McClounie Rd,Vernon                        ,Standard School                         ,SECONDARY,YES,NO,NO,NO,50.22296705,-119.2488864
2019/2020,2222024,Kidston Elementary,022,Vernon,Public School,12101 Linden Dr,Coldstream                    ,Standard School                         ,ELEMENTARY,YES,NO,NO,NO,50.22314384,-119.25863
2019/2020,2222025,Clarence Fulton Secondary,022,Vernon,Public School,2301 Fulton Rd,Vernon                        ,Standard School                         ,ELEMENTARY SECONDARY,YES,NO,NO,NO,50.2493786,-119.3092733
2019/2020,2222026,Ellison Elementary,022,Vernon,Public School,PO Box 2400,Vernon                        ,Standard School                         ,ELEMENTARY,YES,NO,NO,NO,50.25061832,-119.3145326
2019/2020,2222027,Charles Bloom Elementary Secondary,022,Vernon,Public School,PO Box 220,Lumby                         ,Standard School                         ,ELEMENTARY SECONDARY,YES,NO,NO,NO,50.24996886,-118.9641854
2019/2020,2296035,Pleasant Valley Christian Academy,022,Vernon,Independent School,1802 45 Ave,Vernon                        ,Standard School                         ,ELEMENTARY JR SECONDARY,NO,NO,NO,NO,50.27723204,-119.2544306
2019/2020,2296078,St James,022,Vernon,Independent School,2700 28 Ave,Vernon                        ,Standard School                         ,ELEMENTARY,YES,NO,NO,NO,50.26174633,-119.2674817
2019/2020,2296261,Vernon Christian School,022,Vernon,Independent School,6920 Pleasant Valley Rd,Vernon                        ,Standard School                         ,ELEMENTARY SECONDARY,YES,NO,NO,NO,50.31014521,-119.2463799
2019/2020,2296858,Okanagan Waldorf School,022,Vernon,Independent School,730 Whitevale Rd,Lumby                         ,Standard School                         ,ELEMENTARY,NO,NO,NO,NO,50.21931935,-119.0285885
2019/2020,2299077,Open Door Alternate School,022,Vernon,Public School,3303 30 St,Vernon                        ,Alternate Programs                      ,SECONDARY,NO,NO,NO,NO,50.26627003,-119.2703377
2019/2020,2299083,Crossroads Alternate School,022,Vernon,Public School,PO Box 1028,Lumby                         ,Alternate Programs                      ,SECONDARY,NO,NO,NO,NO,50.24867033,-118.9635797
2019/2020,2299151,vLearn.ca,022,Vernon,Public School,1401 15th St,Vernon                        ,Distributed Learning Programs           ,ELEMENTARY SECONDARY,YES,NO,NO,NO,50.25217477,-119.2499542
2019/2020,2299152,Alternative Learning Program,022,Vernon,Public School,1401 15 St,Vernon                        ,Alternate Programs                      ,SECONDARY,YES,NO,NO,NO,50.25217477,-119.2499542
2019/2020,2323000,Adult Education SD#23,023,Central Okanagan,Public School,1825 Richter St,Kelowna                       ,Continuing Education                    ,SECONDARY,NO,NO,NO,NO,49.88120693,-119.4878129
2019/2020,2323005,Central School Programs,023,Central Okanagan,Public School,1825 Richter St,Kelowna                       ,Alternate Programs                      ,SECONDARY,NO,NO,NO,NO,49.88120693,-119.4878129
2019/2020,2323008,Oyama Traditional School,023,Central Okanagan,Public School,15525 Greenhow Rd,Oyama                         ,Standard School                         ,ELEMENTARY,YES,NO,NO,NO,50.10833492,-119.3692227
2019/2020,2323014,Raymer Elementary,023,Central Okanagan,Public School,657 Raymer Ave,Kelowna                       ,Standard School                         ,ELEMENTARY,YES,NO,NO,NO,49.8651826,-119.4890325
2019/2020,2323015,Rutland Middle School,023,Central Okanagan,Public School,715 Rutland Rd N,Kelowna                       ,Standard School                         ,MIDDLE SCHOOL,YES,NO,NO,NO,49.8979867,-119.3861629
2019/2020,2323016,George Pringle Elementary,023,Central Okanagan,Public School,3770 Elliot Rd,West Kelowna                  ,Standard School                         ,ELEMENTARY,YES,YES,NO,NO,49.8272,-119.632
2019/2020,2323018,Glenmore Elementary,023,Central Okanagan,Public School,960 Glenmore Dr,Kelowna                       ,Standard School                         ,ELEMENTARY,YES,YES,NO,NO,49.8978314,-119.4549042
2019/2020,2323022,South Kelowna Elementary,023,Central Okanagan,Public School,4176 Spiers Rd,Kelowna                       ,Standard School                         ,ELEMENTARY,YES,NO,NO,NO,49.8349378,-119.4220089
2019/2020,2323029,Dr Knox Middle School,023,Central Okanagan,Public School,121 Drysdale Blvd,Kelowna                       ,Standard School                         ,MIDDLE SCHOOL,YES,YES,NO,NO,49.92288338,-119.4346516
2019/2020,2323030,Dorothea Walker Elementary,023,Central Okanagan,Public School,4346 Gordon Dr,Kelowna                       ,Standard School                         ,ELEMENTARY,YES,YES,NO,NO,49.8262626,-119.483765
2019/2020,2323031,A S Matheson Elementary,023,Central Okanagan,Public School,2090 Gordon Dr,Kelowna                       ,Standard School                         ,ELEMENTARY,YES,NO,NO,NO,49.8760059,-119.4779193
2019/2020,2323032,North Glenmore Elementary,023,Central Okanagan,Public School,125 Snowsell St North,Kelowna                       ,Standard School                         ,ELEMENTARY,YES,NO,NO,NO,49.9285683,-119.43686
2019/2020,2323033,South Rutland Elementary,023,Central Okanagan,Public School,200 Mallach Rd,Kelowna                       ,Standard School                         ,ELEMENTARY,YES,NO,NO,NO,49.8874659,-119.3818469
2019/2020,2323034,Bankhead Elementary,023,Central Okanagan,Public School,1280 Wilson Ave,Kelowna                       ,Standard School                         ,ELEMENTARY,YES,NO,NO,NO,49.8916212,-119.4716063
2019/2020,2323038,KLO Middle School,023,Central Okanagan,Public School,3130 Gordon Dr,Kelowna                       ,Standard School                         ,MIDDLE SCHOOL,YES,YES,NO,NO,49.8601915,-119.4766737
2019/2020,2323042,Peachland Elementary,023,Central Okanagan,Public School,5486 Clements Cres,Peachland                     ,Standard School                         ,ELEMENTARY,YES,NO,NO,NO,49.78650472,-119.7176836
2019/2020,2323043,Belgo Elementary School,023,Central Okanagan,Public School,125 Adventure Rd,Kelowna                       ,Standard School                         ,ELEMENTARY,YES,YES,NO,NO,49.8823009,-119.3893171
2019/2020,2323044,Rutland Senior Secondary,023,Central Okanagan,Public School,705 Rutland Rd N,Kelowna                       ,Standard School                         ,SECONDARY,YES,NO,NO,NO,49.8969396,-119.3837848
2019/2020,2323046,Casorso Elementary,023,Central Okanagan,Public School,3675 Casorso Rd,Kelowna                       ,Standard School                         ,ELEMENTARY,YES,YES,NO,NO,49.852691,-119.4809706
2019/2020,2323047,Springvalley Middle School,023,Central Okanagan,Public School,350 Ziprick Rd,Kelowna                       ,Standard School                         ,MIDDLE SCHOOL,YES,NO,NO,NO,49.885162,-119.4185961
2019/2020,2323048,Pearson Road Elementary,023,Central Okanagan,Public School,700 Pearson Rd,Kelowna                       ,Standard School                         ,ELEMENTARY,YES,NO,NO,NO,49.8988556,-119.3994835
2019/2020,2323049,Glenrosa Elementary,023,Central Okanagan,Public School,3430 Webber Rd,West Kelowna                  ,Standard School                         ,ELEMENTARY,YES,NO,NO,NO,49.83974532,-119.6557289
2019/2020,2323050,Springvalley Elementary,023,Central Okanagan,Public School,470 Ziprick Rd,Kelowna                       ,Standard School                         ,ELEMENTARY,YES,NO,NO,NO,49.8838102,-119.4183439
2019/2020,2323051,Mount Boucherie Senior Secondary,023,Central Okanagan,Public School,2751 Cameron Rd,West Kelowna                  ,Standard School                         ,SECONDARY,YES,NO,NO,NO,49.8582874,-119.5844001
2019/2020,2323052,Hudson Road Elementary,023,Central Okanagan,Public School,1221 Hudson Rd,West Kelowna                  ,Standard School                         ,ELEMENTARY,YES,NO,NO,NO,49.8614,-119.565
2019/2020,2323056,Black Mountain Elementary,023,Central Okanagan,Public School,1650 Gallagher Rd,Kelowna                       ,Standard School                         ,ELEMENTARY,YES,NO,NO,NO,49.8672889,-119.3498792
2019/2020,2323058,Helen Gorman Elementary,023,Central Okanagan,Public School,3230 Salmon Rd,West Kelowna                  ,Standard School                         ,ELEMENTARY,YES,NO,NO,NO,49.84646212,-119.6722152
2019/2020,2323059,Okanagan Mission Secondary,023,Central Okanagan,Public School,4544 Gordon Dr,Kelowna                       ,Standard School                         ,SECONDARY,YES,NO,NO,NO,49.8185945,-119.4851097
2019/2020,2323060,Quigley Elementary,023,Central Okanagan,Public School,705 Kitch Rd,Kelowna                       ,Standard School                         ,ELEMENTARY,YES,NO,NO,NO,49.880364,-119.4001467
2019/2020,2323061,Peter Greer Elementary,023,Central Okanagan,Public School,10300 Sherman Dr,Winfield                      ,Standard School                         ,ELEMENTARY,YES,YES,NO,NO,50.03218385,-119.38999
2019/2020,2323065,Rose Valley Elementary,023,Central Okanagan,Public School,1680 Westlake Rd,West Kelowna                  ,Standard School                         ,ELEMENTARY,YES,NO,NO,NO,49.88741205,-119.5567033
2019/2020,2323066,Davidson Road Elementary,023,Central Okanagan,Public School,2115 Davidson Rd,Lake Country                  ,Standard School                         ,ELEMENTARY,YES,NO,NO,NO,50.0494104,-119.4278524
2019/2020,2323067,Shannon Lake Elementary,023,Central Okanagan,Public School,3044 Sandstone Dr,West Kelowna                  ,Standard School                         ,ELEMENTARY,YES,NO,NO,NO,49.8525977,-119.6138363
2019/2020,2323070,Anne McClymont Elementary,023,Central Okanagan,Public School,4489 Lakeshore Rd,Kelowna                       ,Standard School                         ,ELEMENTARY,YES,NO,NO,NO,49.8203795,-119.4901988
2019/2020,2323071,Glenrosa Middle School,023,Central Okanagan,Public School,2974 Glen Abbey Pl,West Kelowna                  ,Standard School                         ,MIDDLE SCHOOL,YES,YES,YES,NO,49.83405968,-119.6580084
2019/2020,2323072,Ellison Elementary,023,Central Okanagan,Public School,3735 Parkdale Rd,Kelowna                       ,Standard School                         ,ELEMENTARY,YES,NO,NO,NO,49.9384469,-119.354602
2019/2020,2323073,Chief Tomat Elementary,023,Central Okanagan,Public School,3365 East Boundary Rd,West Kelowna                  ,Standard School                         ,ELEMENTARY,YES,NO,NO,NO,49.84192747,-119.587852
2019/2020,2323074,Watson Road Elementary,023,Central Okanagan,Public School,475 Yates Rd,Kelowna                       ,Standard School                         ,ELEMENTARY,YES,NO,NO,NO,49.9122892,-119.4492417
2019/2020,2323075,Constable Neil Bruce Middle School,023,Central Okanagan,Public School,2010 Daimler Dr,West Kelowna                  ,Standard School                         ,MIDDLE SCHOOL,YES,NO,NO,NO,49.85769939,-119.5966759
2019/2020,2323076,Kelowna Secondary,023,Central Okanagan,Public School,1079 Raymer Ave,Kelowna                       ,Standard School                         ,SECONDARY,YES,YES,NO,NO,49.8640577,-119.4783557
2019/2020,2323077,Rutland Elementary,023,Central Okanagan,Public School,620 Webster Rd,Kelowna                       ,Standard School                         ,ELEMENTARY,YES,NO,NO,NO,49.8986412,-119.3755006
2019/2020,2323078,Chute Lake Elementary,023,Central Okanagan,Public School,5240 Lark St,Kelowna                       ,Standard School                         ,ELEMENTARY,YES,NO,NO,NO,49.7960002,-119.5102641
2019/2020,2323079,Mar Jok Elementary,023,Central Okanagan,Public School,2101 McDougall Rd,West Kelowna                  ,Standard School                         ,ELEMENTARY,YES,NO,NO,NO,49.87686722,-119.5711723
2019/2020,2323080,George Elliot Secondary,023,Central Okanagan,Public School,10241 Bottom Wood Lake Rd,Winfield                      ,Standard School                         ,ELEMENTARY SECONDARY,YES,NO,NO,NO,50.03038078,-119.400767
2019/2020,2323082,Central Secondary,023,Central Okanagan,Public School,1825 Richter St,Kelowna                       ,Standard School                         ,JUNIOR SECONDARY,NO,NO,NO,NO,49.88120693,-119.4878129
2019/2020,2323084,Canyon Falls Middle School,023,Central Okanagan,Public School,1211 Frost Rd,Kelowna                       ,Standard School                         ,ELEMENTARY JR SECONDARY,YES,NO,NO,NO,49.8043874,-119.4675803
2019/2020,2395064,Adolescent Psychiatric Program,023,Central Okanagan,Public School,1940 Underhill St,Kelowna                       ,Short Term PRP                          ,NO ENROLMENT REPORTED,NO,NO,NO,NO,49.87917389,-119.4363563
2019/2020,2396013,Immaculata Regional High School,023,Central Okanagan,Independent School,1493 K.L.O. Rd,Kelowna                       ,Standard School                         ,SECONDARY,YES,NO,NO,NO,49.86037865,-119.4656809
2019/2020,2396023,Okanagan Christian School,023,Central Okanagan,Independent School,1035 Hollywood Rd S,Kelowna                       ,Standard School                         ,ELEMENTARY SECONDARY,YES,NO,NO,NO,49.87688324,-119.3972238
2019/2020,2396081,St Joseph Elementary School,023,Central Okanagan,Independent School,839 Sutherland Ave,Kelowna                       ,Standard School                         ,ELEMENTARY,YES,NO,NO,NO,49.87957495,-119.4841589
2019/2020,2396281,Kelowna Christian School,023,Central Okanagan,Independent School,2870 Benvoulin Rd,Kelowna                       ,Standard School                         ,ELEMENTARY SECONDARY,YES,NO,NO,NO,49.86280361,-119.4572059
2019/2020,2396360,Lakeside School Kelowna,023,Central Okanagan,Independent School,429 Collett Rd,Kelowna                       ,Standard School                         ,ELEMENTARY,YES,NO,NO,NO,49.81713281,-119.4987393
2019/2020,2396479,Heritage Christian School,023,Central Okanagan,Independent School,907 Badke Rd,Kelowna                       ,Standard School                         ,ELEMENTARY SECONDARY,NO,NO,NO,NO,49.89127537,-119.4047611
2019/2020,2396575,Okanagan Montessori Elementary School,023,Central Okanagan,Independent School,3439 East Kelowna Rd,Kelowna                       ,Standard School                         ,ELEMENTARY,NO,NO,NO,NO,49.86674,-119.40551
2019/2020,2396609,Our Lady of Lourdes,023,Central Okanagan,Independent School,2547 Hebert Rd,West Kelowna                  ,Standard School                         ,ELEMENTARY,YES,NO,NO,NO,49.82789242,-119.6332693
2019/2020,2396612,Willowstone Academy,023,Central Okanagan,Independent School,4091 Lakeshore Rd,Kelowna                       ,Standard School                         ,ELEMENTARY JR SECONDARY,NO,NO,NO,NO,49.83669,-119.48621
2019/2020,2396676,Studio 9 Independent School of the Arts,023,Central Okanagan,Independent School,1180 Houghton Rd,Kelowna                       ,Standard School                         ,ELEMENTARY SECONDARY,YES,NO,NO,NO,49.89264,-119.40984
2019/2020,2396689,Aberdeen Hall Preparatory School,023,Central Okanagan,Independent School,950 Academy Way,Kelowna                       ,Standard School                         ,ELEMENTARY,YES,NO,NO,NO,49.93530832,-119.4019641
2019/2020,2396719,KLEOS Open Learning (DL),023,Central Okanagan,Independent School,205-251 Lawrence Ave,Kelowna                       ,Distributed Learning Programs           ,ELEMENTARY SECONDARY,YES,NO,NO,NO,49.88512,-119.49805
2019/2020,2396738,Heritage Christian Online School (DL),023,Central Okanagan,Independent School,905 Badke Rd,Kelowna                       ,Distributed Learning Programs           ,ELEMENTARY SECONDARY,YES,NO,NO,NO,49.89062,-119.40459
2019/2020,2396825,Aberdeen Hall Senior,023,Central Okanagan,Independent School,890 Academy Way,Kelowna                       ,Standard School                         ,ELEMENTARY SECONDARY,YES,NO,NO,NO,49.9345587,-119.4026296
2019/2020,2396966,The Balsam School,023,Central Okanagan,Independent School,205-251 Lawrence Ave,Kelowna                       ,Standard School                         ,NO ENROLMENT REPORTED,NO,NO,NO,NO,49.8851255,-119.4980485
2019/2020,2397006,Sensisyusten House of Learning,023,Central Okanagan,Independent School,1920 Quail Lane,Westbank                      ,Standard School                         ,ELEMENTARY,NO,NO,NO,NO,49.840445,-119.596388
2019/2020,2399159,eSchoolBC,023,Central Okanagan,Public School,1825 Richter St,Kelowna                       ,Distributed Learning Programs           ,ELEMENTARY SECONDARY,NO,NO,NO,NO,49.88120693,-119.4878129
2019/2020,2727000,GROW Continuing Education Centre,027,Cariboo-Chilcotin,Public School,320 Second Ave N,Williams Lake                 ,Continuing Education                    ,SECONDARY,NO,NO,NO,NO,52.13361425,-122.1456149
2019/2020,2727007,Forest Grove Elementary,027,Cariboo-Chilcotin,Public School,PO Box 99,Forest Grove                  ,Standard School                         ,ELEMENTARY,YES,NO,NO,NO,51.7693978,-121.0964547
2019/2020,2727008,Horsefly Elem-Jr Secondary,027,Cariboo-Chilcotin,Public School,PO Box 39,Horsefly                      ,Standard School                         ,ELEMENTARY,YES,NO,NO,NO,52.33435334,-121.4157591
2019/2020,2727011,Marie Sharpe Elementary,027,Cariboo-Chilcotin,Public School,260 Cameron St,Williams Lake                 ,Standard School                         ,ELEMENTARY,YES,NO,NO,NO,52.13365166,-122.1448055
2019/2020,2727012,100 Mile House Elementary,027,Cariboo-Chilcotin,Public School,PO Box 460,100 Mile House                ,Standard School                         ,ELEMENTARY,YES,YES,NO,NO,51.64717374,-121.2933565
2019/2020,2727014,Likely Elem-Jr Secondary,027,Cariboo-Chilcotin,Public School,PO Box 57,Likely                        ,Standard School                         ,ELEMENTARY,YES,NO,NO,NO,52.61631944,-121.5580004
2019/2020,2727020,Big Lake Elementary,027,Cariboo-Chilcotin,Public School,Box 70,Big Lake                      ,Standard School                         ,ELEMENTARY,YES,NO,NO,NO,52.37810547,-121.877613
2019/2020,2727027,150 Mile Elementary,027,Cariboo-Chilcotin,Public School,PO Box 259,150 Mile House                ,Standard School                         ,ELEMENTARY,YES,NO,NO,NO,52.10731491,-121.9266996
2019/2020,2727030,Lac La Hache Elementary,027,Cariboo-Chilcotin,Public School,PO Box 128,Lac La Hache                  ,Standard School                         ,ELEMENTARY,YES,NO,NO,NO,51.8186098,-121.48234
2019/2020,2727041,Chilcotin Road Elementary,027,Cariboo-Chilcotin,Public School,709 Lyne Rd,Williams Lake                 ,Standard School                         ,ELEMENTARY,YES,NO,NO,NO,52.1147374,-122.1723169
2019/2020,2727045,Mountview Elementary,027,Cariboo-Chilcotin,Public School,1222 Dog Creek Rd,Williams Lake                 ,Standard School                         ,ELEMENTARY,YES,NO,NO,NO,52.0998637,-122.1234469
2019/2020,2727054,Anahim Lake Elem-Jr Secondary,027,Cariboo-Chilcotin,Public School,PO Box 3350 General Delivery,Anahim Lake                   ,Standard School                         ,ELEMENTARY JR SECONDARY,NO,NO,NO,NO,52.46063019,-125.3052662
2019/2020,2727056,Peter Skene Ogden Secondary,027,Cariboo-Chilcotin,Public School,PO Box 910,100 Mile House                ,Standard School                         ,SECONDARY,YES,YES,NO,NO,51.637295,-121.3017027
2019/2020,2727057,Cataline Elementary,027,Cariboo-Chilcotin,Public School,1175 Blair St,Williams Lake                 ,Standard School                         ,ELEMENTARY,YES,NO,NO,NO,52.15094428,-122.1509537
2019/2020,2727059,Naghtaneqed Elem-Jr Secondary,027,Cariboo-Chilcotin,Public School,PO Box 100,Nemaiah Valley                ,Standard School                         ,ELEMENTARY JR SECONDARY,NO,NO,NO,NO,51.46443205,-123.9484887
2019/2020,2727061,Horse Lake Elementary,027,Cariboo-Chilcotin,Public School,6548 Ryall Rd,Lone Butte                    ,Standard School                         ,ELEMENTARY,YES,NO,NO,NO,51.5750582,-121.1382954
2019/2020,2727062,Mile 108 Elementary,027,Cariboo-Chilcotin,Public School,PO Box 27,108 Mile Ranch                ,Standard School                         ,ELEMENTARY,YES,NO,NO,NO,51.7278974,-121.3322985
2019/2020,2727065,Nesika Elementary,027,Cariboo-Chilcotin,Public School,1180 Moon Ave,Williams Lake                 ,Standard School                         ,ELEMENTARY,YES,YES,NO,NO,52.14684515,-122.153198
2019/2020,2727066,Tatla Lake Elem-Jr Secondary,027,Cariboo-Chilcotin,Public School,PO Box 56,Tatla Lake                    ,Standard School                         ,ELEMENTARY JR SECONDARY,YES,NO,NO,NO,51.89564906,-124.6361888
2019/2020,2727070,Dog Creek Elem-Jr. Secondary,027,Cariboo-Chilcotin,Public School,General Delivery,Dog Creek                     ,Standard School                         ,ELEMENTARY JR SECONDARY,NO,NO,NO,NO,51.58409766,-122.2310225
2019/2020,2727071,Alexis Creek Elementary/Secondary,027,Cariboo-Chilcotin,Public School,PO Box 199,Alexis Creek                  ,Standard School                         ,ELEMENTARY JR SECONDARY,YES,NO,NO,NO,52.08564345,-123.2756176
2019/2020,2727072,Lake City Secondary,027,Cariboo-Chilcotin,Public School,640 Carson Drive,Williams Lake                 ,Standard School                         ,ELEMENTARY SECONDARY,YES,YES,NO,NO,52.13645719,-122.1407661
2019/2020,2795040,Nenqayni Treatment Centre,027,Cariboo-Chilcotin,Public School,2448 Sandberg Rd,Williams Lake                 ,Short Term PRP                          ,NO ENROLMENT REPORTED,NO,NO,NO,NO,52.06806952,-122.1712992
2019/2020,2796177,Cariboo Adventist Academy,027,Cariboo-Chilcotin,Independent School,1405 South Lakeside Dr,Williams Lake                 ,Standard School                         ,ELEMENTARY SECONDARY,YES,NO,NO,NO,52.11193177,-122.1144916
2019/2020,2796263,Maranatha Christian School,027,Cariboo-Chilcotin,Independent School,1278 Lakeview Cres,Williams Lake                 ,Standard School                         ,ELEMENTARY SECONDARY,YES,NO,NO,NO,52.12552996,-122.1170255
2019/2020,2796566,Sacred Heart Catholic School,027,Cariboo-Chilcotin,Independent School,455 Pigeon Ave,Williams Lake                 ,Standard School                         ,ELEMENTARY,YES,NO,NO,NO,52.1368886,-122.147881
2019/2020,2799060,Graduation Routes Other Ways,027,Cariboo-Chilcotin,Public School,320 Second Ave N,Williams Lake                 ,Distributed Learning Programs           ,ELEMENTARY SECONDARY,NO,NO,NO,NO,52.13361425,-122.1456149
2019/2020,2799094,Skyline Alternate School,027,Cariboo-Chilcotin,Public School,320 Second Ave N,Williams Lake                 ,Alternate Programs                      ,SECONDARY,NO,NO,NO,NO,52.13361425,-122.1456149
2019/2020,2799181,PSO Outback Storefront,027,Cariboo-Chilcotin,Public School,PO Box 910,100 Mile House                ,Alternate Programs                      ,SECONDARY,NO,NO,NO,NO,51.64715921,-121.29731
2019/2020,2828002,Wells Barkerville Elementary,028,Quesnel,Public School,PO Box 190,Wells                         ,Standard School                         ,ELEMENTARY,YES,NO,NO,NO,53.10645156,-121.5743687
2019/2020,2828004,Quesnel Junior School,028,Quesnel,Public School,950 Mountain Ash Rd,Quesnel                       ,Standard School                         ,JUNIOR SECONDARY,YES,YES,NO,NO,52.96316876,-122.4508311
2019/2020,2828008,Kersley Elementary School,028,Quesnel,Public School,2899 Arnoldus Rd,Quesnel                       ,Standard School                         ,ELEMENTARY,YES,NO,NO,NO,52.837933,-122.418624
2019/2020,2828016,Ecole Red Bluff Lhtako Elementary,028,Quesnel,Public School,1533 Maple Dr,Quesnel                       ,Standard School                         ,ELEMENTARY,YES,YES,NO,NO,52.9641483,-122.465946
2019/2020,2828020,Bouchie Lake Elementary School,028,Quesnel,Public School,2074 Blackwater Rd,Quesnel                       ,Standard School                         ,ELEMENTARY,YES,NO,NO,NO,53.02678406,-122.5954817
2019/2020,2828021,Dragon Lake Elementary,028,Quesnel,Public School,2671 Hydraulic Rd,Quesnel                       ,Standard School                         ,ELEMENTARY,YES,NO,NO,NO,52.97265543,-122.4325424
2019/2020,2828024,Carson Elementary School,028,Quesnel,Public School,1255 Graham Ave,Quesnel                       ,Standard School                         ,ELEMENTARY,YES,NO,NO,NO,52.97585614,-122.4779435
2019/2020,2828032,Lakeview Elementary,028,Quesnel,Public School,1525 Beryl St,Quesnel                       ,Standard School                         ,ELEMENTARY,YES,NO,NO,NO,52.9542878,-122.444604
2019/2020,2828034,Correlieu Secondary School,028,Quesnel,Public School,850 Anderson Dr,Quesnel                       ,Standard School                         ,SECONDARY,YES,YES,NO,NO,52.96707585,-122.5165789
2019/2020,2828036,Voyageur Elementary School,028,Quesnel,Public School,1337 Lark Ave,Quesnel                       ,Standard School                         ,ELEMENTARY,YES,NO,NO,NO,52.97784715,-122.5258781
2019/2020,2828038,Parkland Elementary,028,Quesnel,Public School,5016 Bjornson Rd,Quesnel                       ,Standard School                         ,ELEMENTARY,YES,NO,NO,NO,53.08487276,-122.4372008
2019/2020,2828039,Riverview Elementary,028,Quesnel,Public School,346 Hartley St,Quesnel                       ,Standard School                         ,ELEMENTARY,YES,NO,NO,NO,52.97673199,-122.5063958
2019/2020,2828040,Barlow Creek Elementary,028,Quesnel,Public School,816 Barkerville Hwy,Quesnel                       ,Standard School                         ,ELEMENTARY,YES,NO,NO,NO,53.0202674,-122.454483
2019/2020,2828041,Nazko Valley Elementary,028,Quesnel,Public School,9560 Nazko Rd,Quesnel                       ,Standard School                         ,ELEMENTARY,NO,NO,NO,NO,52.9302902,-123.5629662
2019/2020,2896434,St Ann's School,028,Quesnel,Independent School,150 Sutherland Ave,Quesnel                       ,Standard School                         ,ELEMENTARY,YES,NO,NO,NO,52.98666451,-122.498358
2019/2020,2896621,North Cariboo Christian School,028,Quesnel,Independent School,2876 Red Bluff Rd,Quesnel                       ,Standard School                         ,ELEMENTARY JR SECONDARY,NO,NO,NO,NO,52.92402701,-122.4660551
2019/2020,2896902,Fraser River Christian School,028,Quesnel,Independent School,8250 Hwy 97 S,Quesnel                       ,Standard School                         ,ELEMENTARY JR SECONDARY,NO,NO,NO,NO,52.97452689,-122.4999429
2019/2020,2899005,McNaughton Centre,028,Quesnel,Public School,241 Kinchant St,Quesnel                       ,Alternate Programs                      ,SECONDARY,NO,NO,NO,NO,52.97634371,-122.4944768
2019/2020,2899174,Quesnel Distributed Learning,028,Quesnel,Public School,241 Kinchant St,Quesnel                       ,Distributed Learning Programs           ,ELEMENTARY SECONDARY,YES,NO,NO,NO,52.97634371,-122.4944768
2019/2020,3333000,Continuing Ed SD 33,033,Chilliwack,Public School,46361 Yale Rd,Chilliwack                    ,Continuing Education                    ,SECONDARY,NO,NO,NO,NO,49.17664578,-121.9434225
2019/2020,3333003,Strathcona Elementary,033,Chilliwack,Public School,46375 Strathcona Rd,Chilliwack                    ,Standard School                         ,ELEMENTARY,YES,NO,NO,NO,49.18749024,-121.9411643
2019/2020,3333004,Chilliwack Middle School,033,Chilliwack,Public School,46354 Yale Rd,Chilliwack                    ,Standard School                         ,MIDDLE SCHOOL,YES,YES,YES,NO,49.1735207,-121.9437665
2019/2020,3333005,Sardis Elementary,033,Chilliwack,Public School,45775 Manuel Rd,Chilliwack                    ,Standard School                         ,ELEMENTARY,YES,NO,NO,NO,49.12811158,-121.9585897
2019/2020,3333008,Chilliwack Central Elementary Community,033,Chilliwack,Public School,9435 Young Rd,Chilliwack                    ,Standard School                         ,ELEMENTARY,YES,NO,NO,NO,49.17397107,-121.9531892
2019/2020,3333009,Cultus Lake Community School,033,Chilliwack,Public School,71 Sunnyside Blvd,Cultus Lake                   ,Standard School                         ,ELEMENTARY,YES,NO,NO,NO,49.07255412,-121.9757266
2019/2020,3333010,East Chilliwack Elementary,033,Chilliwack,Public School,49190 Chilliwack Central Rd,Chilliwack                    ,Standard School                         ,ELEMENTARY,YES,NO,NO,NO,49.1614174,-121.8636187
2019/2020,3333011,Vedder Elementary,033,Chilliwack,Public School,45850 Promontory Rd,Chilliwack                    ,Standard School                         ,ELEMENTARY,YES,NO,NO,NO,49.11074342,-121.9545672
2019/2020,3333012,Chilliwack Secondary,033,Chilliwack,Public School,46363 Yale Rd,Chilliwack                    ,Standard School                         ,SECONDARY,YES,NO,NO,NO,49.17662007,-121.942509
2019/2020,3333013,Cheam Elementary,033,Chilliwack,Public School,9895 Banford Rd,Chilliwack                    ,Standard School                         ,ELEMENTARY,YES,YES,NO,NO,49.1815068,-121.8940881
2019/2020,3333015,Yarrow Community School,033,Chilliwack,Public School,4605 Wilson Rd,Chilliwack                    ,Standard School                         ,ELEMENTARY,YES,NO,NO,NO,49.08578256,-122.0466898
2019/2020,3333016,Little Mountain Elementary,033,Chilliwack,Public School,9900 Carleton St,Chilliwack                    ,Standard School                         ,ELEMENTARY,YES,NO,NO,NO,49.18115828,-121.9293536
2019/2020,3333017,Watson Elementary,033,Chilliwack,Public School,45305 Watson Rd,Chilliwack                    ,Standard School                         ,ELEMENTARY,YES,NO,NO,NO,49.11216282,-121.9705868
2019/2020,3333018,Sardis Secondary,033,Chilliwack,Public School,45460 Stevenson Rd,Chilliwack                    ,Standard School                         ,SECONDARY,YES,YES,NO,NO,49.12166539,-121.9675885
2019/2020,3333019,Bernard Elementary,033,Chilliwack,Public School,45465 Bernard Ave,Chilliwack                    ,Standard School                         ,ELEMENTARY,YES,NO,NO,NO,49.16437115,-121.9658744
2019/2020,3333023,Rosedale Traditional Community,033,Chilliwack,Public School,50850 Yale Rd RR 1,Rosedale                      ,Standard School                         ,ELEMENTARY JR SECONDARY,YES,NO,NO,NO,49.17397911,-121.8180265
2019/2020,3333024,Robertson Elementary,033,Chilliwack,Public School,46106 Southlands Cres,Chilliwack                    ,Standard School                         ,ELEMENTARY,YES,NO,NO,NO,49.15764567,-121.9475039
2019/2020,3333028,McCammon Traditional Elementary,033,Chilliwack,Public School,9601 Hamilton St,Chilliwack                    ,Standard School                         ,ELEMENTARY,YES,NO,NO,NO,49.17677274,-121.9682718
2019/2020,3333029,Unsworth Elementary,033,Chilliwack,Public School,5685 Unsworth Rd,Chilliwack                    ,Standard School                         ,ELEMENTARY,YES,NO,NO,NO,49.10508001,-121.9990639
2019/2020,3333030,F G Leary Fine Arts Elementary,033,Chilliwack,Public School,9320 Walden St,Chilliwack                    ,Standard School                         ,ELEMENTARY,YES,NO,NO,NO,49.17133664,-121.9208182
2019/2020,3333033,A D Rundle Middle School,033,Chilliwack,Public School,45660 Hocking Ave,Chilliwack                    ,Standard School                         ,MIDDLE SCHOOL,YES,NO,NO,NO,49.15894948,-121.9620124
2019/2020,3333034,Vedder Middle School,033,Chilliwack,Public School,45560 South Sumas Rd,Chilliwack                    ,Standard School                         ,MIDDLE SCHOOL,YES,YES,YES,NO,49.11747102,-121.9637096
2019/2020,3333035,Tyson Elementary,033,Chilliwack,Public School,45170 S Sumas Rd,Chilliwack                    ,Standard School                         ,ELEMENTARY,YES,NO,NO,NO,49.11748725,-121.9739089
2019/2020,3333038,Mount Slesse Middle School,033,Chilliwack,Public School,5871 Tyson Rd,Chilliwack                    ,Standard School                         ,MIDDLE SCHOOL,YES,NO,NO,NO,49.1095786,-121.9776519
2019/2020,3333039,Evans Elementary,033,Chilliwack,Public School,7600 Evans Rd,Chilliwack                    ,Standard School                         ,ELEMENTARY,YES,NO,NO,NO,49.13819213,-121.976943
2019/2020,3333040,Promontory Heights Community Elementary,033,Chilliwack,Public School,46200 Stoneview Dr,Chilliwack                    ,Standard School                         ,ELEMENTARY,YES,NO,NO,NO,49.1016116,-121.945256
2019/2020,3333042,Greendale Elementary,033,Chilliwack,Public School,6621 Sumas Prairie Rd,Chilliwack                    ,Standard School                         ,ELEMENTARY,YES,NO,NO,NO,49.12189109,-122.0460445
2019/2020,3333044,GW Graham Secondary,033,Chilliwack,Public School,45955 Thomas Rd,Chilliwack                    ,Standard School                         ,SECONDARY,YES,NO,NO,NO,49.10743438,-121.9529557
2019/2020,3396149,St Mary's,033,Chilliwack,Independent School,8909 Mary St,Chilliwack                    ,Standard School                         ,ELEMENTARY,YES,NO,NO,NO,49.16379675,-121.962618
2019/2020,3396181,Unity Christian School,033,Chilliwack,Independent School,PO Box 371 STN Main,Chilliwack                    ,Standard School                         ,ELEMENTARY SECONDARY,YES,NO,NO,NO,49.1567141,-121.8144159
2019/2020,3396192,John Calvin School,033,Chilliwack,Independent School,4268 Stewart Rd,Chilliwack                    ,Standard School                         ,ELEMENTARY,YES,NO,NO,NO,49.07907786,-122.0670676
2019/2020,3396209,Timothy Christian School,033,Chilliwack,Independent School,50420 Castleman Rd,Chilliwack                    ,Standard School                         ,ELEMENTARY SECONDARY,YES,NO,NO,NO,49.19017186,-121.8293643
2019/2020,3396251,Highroad Academy,033,Chilliwack,Independent School,46641 Chilliwack Central Rd,Chilliwack                    ,Standard School                         ,ELEMENTARY SECONDARY,YES,NO,NO,NO,49.16261413,-121.9331086
2019/2020,3396354,Mount Cheam Christian School,033,Chilliwack,Independent School,48988 Yale Rd East,Chilliwack                    ,Standard School                         ,ELEMENTARY SECONDARY,NO,NO,NO,NO,49.17666312,-121.8705157
2019/2020,3396641,Chilliwack Adventist Christian School,033,Chilliwack,Independent School,46018 Riverside Dr,Chilliwack                    ,Standard School                         ,ELEMENTARY,YES,NO,NO,NO,49.18043,-121.95144
2019/2020,3396824,Cascade Christian School,033,Chilliwack,Independent School,45657 Yale Road,Chilliwack                    ,Standard School                         ,ELEMENTARY JR SECONDARY,NO,NO,NO,NO,49.1560888,-121.9614429
2019/2020,3398003,Fraser Valley Distance Education,033,Chilliwack,Public School,46361 Yale Rd,Chilliwack                    ,Distributed Learning Programs           ,ELEMENTARY SECONDARY,NO,NO,NO,NO,49.17664578,-121.9434225
2019/2020,3399056,Kwiyeqel Secondary,033,Chilliwack,Public School,8855 Elm Dr,Chilliwack                    ,Alternate Programs                      ,SECONDARY,NO,NO,NO,NO,49.16294648,-121.9479859
2019/2020,3434000,Bakerview Ctr for Learning - CE,034,Abbotsford,Public School,32622 Marshall Rd,Abbotsford                    ,Continuing Education                    ,SECONDARY,NO,NO,NO,NO,49.03757037,-122.3204908
2019/2020,3434003,Mt Lehman Elementary,034,Abbotsford,Public School,6381 Mt Lehman Rd,Abbotsford                    ,Standard School                         ,ELEMENTARY,YES,NO,NO,NO,49.11824997,-122.3832084
2019/2020,3434005,ASIA - North Poplar,034,Abbotsford,Public School,32041 Marshall Rd,Abbotsford                    ,Standard School                         ,ELEMENTARY,YES,NO,NO,NO,49.03869178,-122.3359033
2019/2020,3434007,Upper Sumas Elementary,034,Abbotsford,Public School,36321 Vye Rd,Abbotsford                    ,Standard School                         ,ELEMENTARY,YES,NO,NO,NO,49.01767171,-122.2181781
2019/2020,3434011,Bradner Elementary,034,Abbotsford,Public School,5291 Bradner Rd,Abbotsford                    ,Standard School                         ,ELEMENTARY,YES,NO,NO,NO,49.09819205,-122.4272851
2019/2020,3434016,South Poplar Traditional Elementary,034,Abbotsford,Public School,32746 Huntingdon Rd,Abbotsford                    ,Standard School                         ,ELEMENTARY,YES,NO,NO,NO,49.01639122,-122.3167105
2019/2020,3434018,Clearbrook Elementary,034,Abbotsford,Public School,3614 Clearbrook Rd,Abbotsford                    ,Standard School                         ,ELEMENTARY,YES,YES,NO,NO,49.0679343,-122.3365184
2019/2020,3434019,King Traditional Elementary,034,Abbotsford,Public School,28776 King Rd,Abbotsford                    ,Standard School                         ,ELEMENTARY,YES,NO,NO,NO,49.03072815,-122.427248
2019/2020,3434020,Abbotsford Traditional Middle School,034,Abbotsford,Public School,2272 Windsor St,Abbotsford                    ,Standard School                         ,MIDDLE SCHOOL,YES,NO,NO,NO,49.04356239,-122.3540793
2019/2020,3434021,Alexander Elementary,034,Abbotsford,Public School,2250 Lobban Rd,Abbotsford                    ,Standard School                         ,ELEMENTARY,YES,NO,NO,NO,49.04270135,-122.2874159
2019/2020,3434022,Abbotsford Senior Secondary School,034,Abbotsford,Public School,33355 Bevan  Ave,Abbotsford                    ,Standard School                         ,SECONDARY,YES,NO,NO,NO,49.04359461,-122.3001517
2019/2020,3434023,Barrowtown Elementary,034,Abbotsford,Public School,5137 Tolmie Rd,Abbotsford                    ,Standard School                         ,ELEMENTARY,YES,NO,NO,NO,49.09574041,-122.0956346
2019/2020,3434025,Abbotsford Middle School,034,Abbotsford,Public School,33231 Bevan Ave,Abbotsford                    ,Standard School                         ,MIDDLE SCHOOL,YES,NO,NO,NO,49.04241247,-122.3032846
2019/2020,3434026,Aberdeen Elementary,034,Abbotsford,Public School,2975 Bradner Rd,Abbotsford                    ,Standard School                         ,ELEMENTARY,YES,NO,NO,NO,49.05637659,-122.4267217
2019/2020,3434027,McMillan Elementary,034,Abbotsford,Public School,34830 Oakhill Dr,Abbotsford                    ,Standard School                         ,ELEMENTARY,YES,NO,NO,NO,49.0439172,-122.2597416
2019/2020,3434028,Godson Elementary,034,Abbotsford,Public School,33130 Bevan Ave,Abbotsford                    ,Standard School                         ,ELEMENTARY,YES,NO,NO,NO,49.04146712,-122.3065724
2019/2020,3434031,Jackson Elementary,034,Abbotsford,Public School,33165 King Rd,Abbotsford                    ,Standard School                         ,ELEMENTARY,YES,NO,NO,NO,49.0315725,-122.3056471
2019/2020,3434032,Ross Elementary,034,Abbotsford,Public School,2451 Ross Rd,Abbotsford                    ,Standard School                         ,ELEMENTARY,YES,NO,NO,NO,49.04721603,-122.4044951
2019/2020,3434033,Margaret Stenersen Elementary,034,Abbotsford,Public School,3060 Old Clayburn Rd,Abbotsford                    ,Standard School                         ,ELEMENTARY,YES,YES,NO,NO,49.0576629,-122.2691363
2019/2020,3434035,Auguston Traditional Elementary,034,Abbotsford,Public School,36367 Stephen Leacock Dr,Abbotsford                    ,Standard School                         ,ELEMENTARY,YES,NO,NO,NO,49.0839546,-122.2194748
2019/2020,3434036,Ten Broeck Elementary,034,Abbotsford,Public School,2580 Stanley St,Abbotsford                    ,Standard School                         ,ELEMENTARY,YES,NO,NO,NO,49.04973496,-122.3452101
2019/2020,3434037,Centennial Park Elementary,034,Abbotsford,Public School,2527 Gladwin Rd,Abbotsford                    ,Standard School                         ,ELEMENTARY,YES,YES,NO,NO,49.04791051,-122.316081
2019/2020,3434038,Yale Secondary,034,Abbotsford,Public School,34620 Old Yale Rd,Abbotsford                    ,Standard School                         ,SECONDARY,YES,NO,NO,NO,49.0479384,-122.264393
2019/2020,3434041,W J Mouat Secondary,034,Abbotsford,Public School,32355 Mouat Dr,Abbotsford                    ,Standard School                         ,SECONDARY,YES,YES,NO,NO,49.05942223,-122.3278132
2019/2020,3434042,William A. Fraser Middle School,034,Abbotsford,Public School,34695 Blatchford Way,Abbotsford                    ,Standard School                         ,MIDDLE SCHOOL,YES,NO,NO,NO,49.0460091,-122.2641821
2019/2020,3434043,Dormick Park Elementary,034,Abbotsford,Public School,32161 Dormick Ave,Abbotsford                    ,Standard School                         ,ELEMENTARY,YES,NO,NO,NO,49.04428149,-122.332296
2019/2020,3434044,John MacLure Community School,034,Abbotsford,Public School,2990 Oriole Cres,Abbotsford                    ,Standard School                         ,ELEMENTARY,YES,NO,NO,NO,49.05645355,-122.3200612
2019/2020,3434045,Dr Thomas A Swift Elementary,034,Abbotsford,Public School,34800 Mierau St,Abbotsford                    ,Standard School                         ,ELEMENTARY,YES,NO,NO,NO,49.06639568,-122.2601365
2019/2020,3434046,Terry Fox Elementary,034,Abbotsford,Public School,3071 Babich St,Abbotsford                    ,Standard School                         ,ELEMENTARY,YES,NO,NO,NO,49.05792263,-122.3013473
2019/2020,3434047,Chief Dan George Middle,034,Abbotsford,Public School,32877 Old Riverside Rd,Abbotsford                    ,Standard School                         ,MIDDLE SCHOOL,YES,YES,YES,NO,49.06665372,-122.3136965
2019/2020,3434048,Prince Charles Elementary,034,Abbotsford,Public School,35410 McKee Rd,Abbotsford                    ,Standard School                         ,ELEMENTARY,YES,NO,NO,NO,49.06436636,-122.2435717
2019/2020,3434049,Blue Jay Elementary,034,Abbotsford,Public School,30995 Southern Dr,Abbotsford                    ,Standard School                         ,ELEMENTARY,YES,NO,NO,NO,49.05834581,-122.3662141
2019/2020,3434050,Sandy Hill Elementary,034,Abbotsford,Public School,3836 Old Clayburn Rd,Abbotsford                    ,Standard School                         ,ELEMENTARY,YES,YES,NO,NO,49.07172666,-122.2473439
2019/2020,3434051,Harry Sayers Elementary,034,Abbotsford,Public School,31321 Blueridge Dr,Abbotsford                    ,Standard School                         ,ELEMENTARY,YES,NO,NO,NO,49.06823222,-122.3560369
2019/2020,3434052,Rick Hansen Secondary,034,Abbotsford,Public School,31150 Blueridge Dr,Abbotsford                    ,Standard School                         ,SECONDARY,YES,NO,NO,NO,49.06704839,-122.3617768
2019/2020,3434053,Mountain Elementary,034,Abbotsford,Public School,2299 Mountain Dr,Abbotsford                    ,Standard School                         ,ELEMENTARY,YES,NO,NO,NO,49.04326653,-122.234477
2019/2020,3434054,Robert Bateman Secondary,034,Abbotsford,Public School,35045 Exbury Ave,Abbotsford                    ,Standard School                         ,SECONDARY,YES,NO,NO,NO,49.06925753,-122.2543205
2019/2020,3434055,Dr Roberta Bondar Elementary,034,Abbotsford,Public School,32717 Chilcotin Dr,Abbotsford                    ,Standard School                         ,ELEMENTARY,YES,NO,NO,NO,49.07189344,-122.3191838
2019/2020,3434056,Dave Kandal Elementary,034,Abbotsford,Public School,3551 Crestview Ave,Abbotsford                    ,Standard School                         ,ELEMENTARY,YES,NO,NO,NO,49.0674397,-122.3792288
2019/2020,3434057,Colleen and Gordie Howe Middle School,034,Abbotsford,Public School,3174 Clearbrook Rd,Abbotsford                    ,Standard School                         ,MIDDLE SCHOOL,YES,NO,NO,NO,49.05962348,-122.3366437
2019/2020,3434058,Eugene Reimer Middle School,034,Abbotsford,Public School,3433 Firhill Dr,Abbotsford                    ,Standard School                         ,MIDDLE SCHOOL,YES,NO,NO,NO,49.06493073,-122.362543
2019/2020,3434059,Matsqui Elementary,034,Abbotsford,Public School,33661 Elizabeth Ave,Abbotsford                    ,Standard School                         ,ELEMENTARY,YES,NO,NO,NO,49.1059325,-122.292112
2019/2020,3434060,Clayburn Middle School,034,Abbotsford,Public School,35139 Laburnum Ave,Abbotsford                    ,Standard School                         ,MIDDLE SCHOOL,YES,NO,NO,NO,49.07067875,-122.2522203
2019/2020,3434061,Abbotsford Traditional Senior Secondary,034,Abbotsford,Public School,2272 Windsor St,Abbotsford                    ,Standard School                         ,SECONDARY,YES,NO,NO,NO,49.04356239,-122.3540793
2019/2020,3434062,ASIA - Sumas Mountain 6-9,034,Abbotsford,Public School,36232 Lower Sumas Mtn Rd,Abbotsford                    ,Standard School                         ,MIDDLE SCHOOL,YES,NO,NO,NO,49.0505157,-122.2204963
2019/2020,3434064,ASIA - Sumas Mountain 9-12,034,Abbotsford,Public School,36232 Lower Sumas Mtn Rd,Abbotsford                    ,Standard School                         ,SECONDARY,NO,NO,NO,NO,49.0505157,-122.2204963
2019/2020,3496020,Mennonite Educational Institute,034,Abbotsford,Independent School,4081 Clearbrook Rd,Abbotsford                    ,Standard School                         ,ELEMENTARY SECONDARY,YES,NO,NO,NO,49.0763136,-122.3473872
2019/2020,3496069,Abbotsford Christian School,034,Abbotsford,Independent School,35011 Old Clayburn Rd,Abbotsford                    ,Standard School                         ,ELEMENTARY SECONDARY,YES,NO,NO,NO,49.06335097,-122.2540526
2019/2020,3496320,Cornerstone Christian School,034,Abbotsford,Independent School,PO Box 520 STN Main,Abbotsford                    ,Standard School                         ,ELEMENTARY JR SECONDARY,YES,NO,NO,NO,49.07408401,-122.3153627
2019/2020,3496371,Pacific Christian School,034,Abbotsford,Independent School,29623 Downes Rd,Abbotsford                    ,Standard School                         ,ELEMENTARY JR SECONDARY,NO,NO,NO,NO,49.07544002,-122.4031014
2019/2020,3496425,Dasmesh Punjabi School,034,Abbotsford,Independent School,5930 Riverside St,Abbotsford                    ,Standard School                         ,ELEMENTARY SECONDARY,YES,NO,NO,NO,49.11038921,-122.2929778
2019/2020,3496454,St James,034,Abbotsford,Independent School,2767 Townline Rd,Abbotsford                    ,Standard School                         ,ELEMENTARY,YES,NO,NO,NO,49.05250085,-122.3615246
2019/2020,3496595,St John Brebeuf,034,Abbotsford,Independent School,2747 Townline Rd,Abbotsford                    ,Standard School                         ,SECONDARY,YES,NO,NO,NO,49.05180339,-122.3622852
2019/2020,3496607,Dogwood School,034,Abbotsford,Independent School,33886 Pine St,Abbotsford                    ,Standard School                         ,ELEMENTARY SECONDARY,YES,NO,NO,NO,49.05090419,-122.2861289
2019/2020,3496801,West Coast Adventist DL School,034,Abbotsford,Independent School,PO Box 1000 STN Del Ctr,Abbotsford                    ,Distributed Learning Programs           ,ELEMENTARY SECONDARY,YES,NO,NO,NO,49.032018,-122.2925548
2019/2020,3499055,Bakerview Ctr for Learning - Alt,034,Abbotsford,Public School,32622 Marshall Rd,Abbotsford                    ,Alternate Programs                      ,SECONDARY,NO,NO,NO,NO,49.03757037,-122.3204908
2019/2020,3499101,Abbotsford Virtual School,034,Abbotsford,Public School,33952 Pine St,Abbotsford                    ,Distributed Learning Programs           ,ELEMENTARY SECONDARY,YES,NO,NO,NO,49.05123554,-122.2834939
2019/2020,3535002,Fort Langley Elementary,035,Langley,Public School,8877 Bartlett St,Fort Langley                  ,Standard School                         ,ELEMENTARY,YES,NO,NO,NO,49.1637325,-122.5821864
2019/2020,3535009,Belmont Elementary,035,Langley,Public School,20390 40 Ave,Langley                       ,Standard School                         ,ELEMENTARY,YES,YES,NO,NO,49.07421717,-122.6598086
2019/2020,3535010,U-Connect,035,Langley,Public School,20190 48 Ave,Langley                       ,Distributed Learning Programs           ,ELEMENTARY SECONDARY,YES,NO,NO,NO,49.08911183,-122.6643191
2019/2020,3535015,North Otter Elementary,035,Langley,Public School,5370 248 St,Aldergrove                    ,Standard School                         ,ELEMENTARY,YES,NO,NO,NO,49.09985255,-122.5363721
2019/2020,3535016,Willoughby Elementary,035,Langley,Public School,20766 80 Ave,Langley                       ,Standard School                         ,ELEMENTARY,YES,NO,NO,NO,49.1475992,-122.6471164
2019/2020,3535017,Glenwood Elementary,035,Langley,Public School,20785 24 Ave,Langley                       ,Standard School                         ,ELEMENTARY,YES,NO,NO,NO,49.04646778,-122.6478014
2019/2020,3535019,Langley Secondary,035,Langley,Public School,21405 56 Ave,Langley                       ,Standard School                         ,SECONDARY,YES,NO,NO,NO,49.10523838,-122.6308214
2019/2020,3535020,Aldergrove Community Secondary,035,Langley,Public School,26850 29 Ave,Aldergrove                    ,Standard School                         ,SECONDARY,YES,NO,NO,NO,49.05454782,-122.4805906
2019/2020,3535022,Simonds Elementary,035,Langley,Public School,20190 48 Ave,Langley                       ,Standard School                         ,ELEMENTARY,YES,NO,NO,NO,49.08911183,-122.6643191
2019/2020,3535023,Coghlan Fundamental Elementary,035,Langley,Public School,4452 256th St,Aldergrove                    ,Standard School                         ,ELEMENTARY,YES,NO,NO,NO,49.08305805,-122.5145904
2019/2020,3535024,Wix-Brown Elementary,035,Langley,Public School,23851 24 Ave,Langley                       ,Standard School                         ,ELEMENTARY,YES,NO,NO,NO,49.04574707,-122.5627944
2019/2020,3535026,Peterson Road Elementary,035,Langley,Public School,23422 47 Ave,Langley                       ,Standard School                         ,ELEMENTARY,YES,NO,NO,NO,49.08681144,-122.574456
2019/2020,3535029,Langley Fine Arts School,035,Langley,Public School,9096 Trattle St,Fort Langley                  ,Standard School                         ,ELEMENTARY SECONDARY,YES,NO,NO,NO,49.16827432,-122.5875755
2019/2020,3535032,Parkside Centennial Elementary,035,Langley,Public School,3300 270 St,Aldergrove                    ,Standard School                         ,ELEMENTARY,YES,NO,NO,NO,49.0623449,-122.4751392
2019/2020,3535033,Blacklock Fine Arts Elementary,035,Langley,Public School,5100 206 St,Langley                       ,Standard School                         ,ELEMENTARY,YES,NO,NO,NO,49.09599695,-122.6511134
2019/2020,3535034,D W Poppy Secondary,035,Langley,Public School,23752 52 Ave,Langley                       ,Standard School                         ,SECONDARY,YES,NO,NO,NO,49.09609577,-122.5658698
2019/2020,3535036,Brookswood Secondary,035,Langley,Public School,20902 37A Ave,Langley                       ,Standard School                         ,SECONDARY,YES,YES,NO,NO,49.06985045,-122.6443605
2019/2020,3535037,Nicomekl Elementary,035,Langley,Public School,20050 53 Ave,Langley                       ,Standard School                         ,ELEMENTARY,YES,YES,NO,NO,49.0979805,-122.6670399
2019/2020,3535038,Alice Brown Elementary,035,Langley,Public School,20011 44 Ave,Langley                       ,Standard School                         ,ELEMENTARY,YES,NO,NO,NO,49.08262404,-122.667955
2019/2020,3535039,Uplands Elementary,035,Langley,Public School,4471 207A St,Langley                       ,Standard School                         ,ELEMENTARY,YES,NO,NO,NO,49.08345837,-122.6494175
2019/2020,3535040,James Kennedy Elementary,035,Langley,Public School,9060 212 St,Langley                       ,Standard School                         ,ELEMENTARY,YES,YES,NO,NO,49.1669857,-122.6336614
2019/2020,3535041,R E Mountain Secondary,035,Langley,Public School,7633 202A St,Langley                       ,Standard School                         ,SECONDARY,YES,NO,NO,NO,49.14397848,-122.6624237
2019/2020,3535042,Shortreed Community School,035,Langley,Public School,27330 28 Ave,Aldergrove                    ,Standard School                         ,ELEMENTARY,YES,NO,NO,NO,49.05276327,-122.4666219
2019/2020,3535043,West Langley Elementary,035,Langley,Public School,9403 212 St,Langley                       ,Standard School                         ,ELEMENTARY,YES,NO,NO,NO,49.1743,-122.636
2019/2020,3535044,Noel Booth Elementary,035,Langley,Public School,20202 35 Ave,Langley                       ,Standard School                         ,ELEMENTARY,YES,NO,YES,NO,49.06494366,-122.6630658
2019/2020,3535045,Douglas Park Community,035,Langley,Public School,5409 206 St,Langley                       ,Standard School                         ,ELEMENTARY,YES,NO,NO,NO,49.1010285,-122.6525768
2019/2020,3535046,Langley Meadows Elementary,035,Langley,Public School,2244 Willoughby Way,Langley                       ,Standard School                         ,ELEMENTARY,YES,NO,NO,NO,49.1211058,-122.672134
2019/2020,3535047,Alex Hope Elementary,035,Langley,Public School,21150 85 Ave,Langley                       ,Standard School                         ,ELEMENTARY,YES,NO,YES,NO,49.15693099,-122.6356393
2019/2020,3535048,Gordon Greenwood Elementary,035,Langley,Public School,9175 206 St,Langley                       ,Standard School                         ,ELEMENTARY,YES,NO,NO,NO,49.16895977,-122.6519246
2019/2020,3535050,Walnut Grove Secondary,035,Langley,Public School,8919 Walnut Grove Dr,Langley                       ,Standard School                         ,SECONDARY,YES,YES,NO,NO,49.16558914,-122.6410994
2019/2020,3535051,James Hill Elementary,035,Langley,Public School,22144 Old Yale Rd,Langley                       ,Standard School                         ,ELEMENTARY,YES,NO,NO,NO,49.0841809,-122.6100785
2019/2020,3535052,Langley Fundamental Elementary,035,Langley,Public School,21789 50 Ave,Langley                       ,Standard School                         ,ELEMENTARY,YES,NO,NO,NO,49.09352907,-122.6198943
2019/2020,3535053,Dorothy Peacock Elementary,035,Langley,Public School,20292 91A Ave,Langley                       ,Standard School                         ,ELEMENTARY,YES,NO,NO,NO,49.16805711,-122.6599592
2019/2020,3535054,Topham Elementary,035,Langley,Public School,21555 91 Ave,Langley                       ,Standard School                         ,ELEMENTARY,YES,NO,NO,NO,49.16835982,-122.6250518
2019/2020,3535055,R C Garnett Demonstration Elementary,035,Langley,Public School,7096 201 St,Langley                       ,Standard School                         ,ELEMENTARY,YES,NO,NO,NO,49.13194206,-122.6636454
2019/2020,3535056,Langley Fundamental Middle/Secondary Sch,035,Langley,Public School,21250 42 Ave,Langley                       ,Standard School                         ,ELEMENTARY SECONDARY,YES,NO,NO,NO,49.0779818,-122.6348359
2019/2020,3535057,H D Stafford Middle,035,Langley,Public School,20441 Grade Cres,Langley                       ,Standard School                         ,MIDDLE SCHOOL,YES,NO,NO,NO,49.08973675,-122.6565123
2019/2020,3535058,Betty Gilbert Middle,035,Langley,Public School,26845 27 Ave,Aldergrove                    ,Standard School                         ,MIDDLE SCHOOL,YES,YES,YES,NO,49.0517785,-122.4803652
2019/2020,3535061,Lynn Fripps Elementary,035,Langley,Public School,21020 83 Ave,Langley                       ,Standard School                         ,ELEMENTARY,YES,NO,NO,NO,49.15212417,-122.6394961
2019/2020,3535062,Richard Bulpitt Elementary,035,Langley,Public School,20965 77A Ave,Langley                       ,Standard School                         ,ELEMENTARY,YES,NO,NO,NO,49.14371533,-122.642033
2019/2020,3535063,Yorkson Creek Middle School,035,Langley,Public School,20686 84 Ave,Langley                       ,Standard School                         ,MIDDLE SCHOOL,YES,NO,NO,NO,49.1549288,-122.6495602
2019/2020,3535064,Langley Equestrian Academy,035,Langley,Public School,20902 37A Ave,Langley                       ,Standard School                         ,ELEMENTARY SECONDARY,NO,NO,NO,NO,49.06985045,-122.6443605
2019/2020,3535065,Peter Ewart Middle School,035,Langley,Public School,7755 202A St,Langley                       ,Standard School                         ,MIDDLE SCHOOL,YES,NO,NO,NO,49.144277,-122.6631843
2019/2020,3596061,Fraser Valley Adventist Academy,035,Langley,Independent School,26026 48th Ave,Aldergrove                    ,Standard School                         ,ELEMENTARY SECONDARY,YES,NO,NO,NO,49.0888242,-122.5028148
2019/2020,3596289,Credo Christian Schools,035,Langley,Independent School,21846 52 Ave,Langley                       ,Standard School                         ,ELEMENTARY SECONDARY,YES,NO,NO,NO,49.0957102,-122.6171619
2019/2020,3596311,Langley Christian,035,Langley,Independent School,22930 48 Ave,Langley                       ,Standard School                         ,ELEMENTARY SECONDARY,YES,NO,NO,NO,49.08856625,-122.5893988
2019/2020,3596376,King's School,035,Langley,Independent School,PO Box 28 Stn Milner,Langley                       ,Standard School                         ,ELEMENTARY SECONDARY,YES,NO,NO,NO,49.14431978,-122.6185635
2019/2020,3596458,St Catherines School,035,Langley,Independent School,20244 32 Ave,Langley                       ,Standard School                         ,ELEMENTARY,YES,NO,NO,NO,49.05963,-122.66253
2019/2020,3596573,Aldergrove Christian Academy,035,Langley,Independent School,26245 28th Ave,Aldergrove                    ,Standard School                         ,ELEMENTARY SECONDARY,NO,NO,NO,NO,49.05328825,-122.496445
2019/2020,3596616,Murrayville Academy,035,Langley,Independent School,21488 Old Yale Road,Langley                       ,Standard School                         ,ELEMENTARY JR SECONDARY,YES,NO,NO,NO,49.09053829,-122.6275391
2019/2020,3596631,Whytecliff Agile Learning Centre-Langley,035,Langley,Independent School,20561 Logan Ave,Langley                       ,Standard School                         ,SECONDARY,NO,NO,NO,NO,49.10615782,-122.6528864
2019/2020,3596779,The Global School,035,Langley,Independent School,19785 55A Ave,Langley                       ,Standard School                         ,ELEMENTARY,YES,NO,NO,NO,49.10361234,-122.6747997
2019/2020,3596796,Fraser Valley Elementary,035,Langley,Independent School,19533 64 Avenue,Surrey                        ,Standard School                         ,ELEMENTARY,YES,NO,NO,NO,49.12481,-122.65944
2019/2020,3596926,Khalsa School of the Fraser Valley,035,Langley,Independent School,26345 62 Ave,Langley                       ,Standard School                         ,ELEMENTARY JR SECONDARY,NO,NO,NO,NO,49.1152627,-122.4942112
2019/2020,3596955,Genuine Learning Academy,035,Langley,Independent School,24687 56 Ave,Langley                       ,Standard School                         ,MIDDLE SCHOOL,NO,NO,NO,NO,49.1045672,-122.5399242
2019/2020,3599050,Langley Education Centre,035,Langley,Public School,21405A 56 Ave,Langley                       ,Continuing Education                    ,SECONDARY,NO,NO,NO,NO,49.10523838,-122.6308214
2019/2020,3599092,Vanguard,035,Langley,Public School,3825 244 St,Langley                       ,Alternate Programs                      ,SECONDARY,NO,NO,NO,NO,49.07073112,-122.5486385
2019/2020,3599168,Langley Online and Distributed Learning,035,Langley,Public School,21405 56 Ave,Langley                       ,Distributed Learning Programs           ,SECONDARY,NO,NO,NO,NO,49.10523838,-122.6308214
2019/2020,3599173,Choices Program,035,Langley,Public School,21405A 56 Ave,Langley                       ,Alternate Programs                      ,SECONDARY,NO,NO,NO,NO,49.10523838,-122.6308214
2019/2020,3599201,Advance Alternate,035,Langley,Public School,26850 29 Ave,Aldergrove                    ,Alternate Programs                      ,SENIOR SECONDARY,NO,NO,NO,NO,49.05454782,-122.4805906
2019/2020,3599202,Focus Alternate,035,Langley,Public School,21405 56 Ave,Langley                       ,Alternate Programs                      ,SECONDARY,NO,NO,NO,NO,49.10523838,-122.6308214
2019/2020,3599313,Connections,035,Langley,Public School,23752 52 Ave,Langley                       ,Alternate Programs                      ,SENIOR SECONDARY,NO,NO,NO,NO,49.09609577,-122.5658698
2019/2020,3636000,Continuing Ed SD 36,036,Surrey,Public School,14033 92 Ave,Surrey                        ,Continuing Education                    ,SECONDARY,NO,NO,NO,NO,49.17060124,-122.8339033
2019/2020,3636001,Hjorth Road Elementary,036,Surrey,Public School,14781 104 Ave,Surrey                        ,Standard School                         ,ELEMENTARY,YES,NO,NO,NO,49.19188744,-122.8132707
2019/2020,3636002,Port Kells Elementary,036,Surrey,Public School,19076 88 Ave,Surrey                        ,Standard School                         ,ELEMENTARY,YES,NO,NO,NO,49.16253688,-122.6937434
2019/2020,3636004,Cloverdale Traditional,036,Surrey,Public School,17857 56 Ave,Surrey                        ,Standard School                         ,ELEMENTARY,YES,NO,NO,NO,49.10462771,-122.727926
2019/2020,3636009,White Rock Elementary,036,Surrey,Public School,1273 Fir St,White Rock                    ,Standard School                         ,ELEMENTARY,YES,NO,NO,NO,49.0252339,-122.7995474
2019/2020,3636012,Colebrook Elementary,036,Surrey,Public School,5404 125A St,Surrey                        ,Standard School                         ,ELEMENTARY,YES,NO,NO,NO,49.10135281,-122.8739127
2019/2020,3636013,Clayton Elementary,036,Surrey,Public School,7541 184 St,Surrey                        ,Standard School                         ,ELEMENTARY,YES,NO,NO,NO,49.13951855,-122.7131445
2019/2020,3636018,East Kensington Elementary,036,Surrey,Public School,2795 184 St,Surrey                        ,Standard School                         ,ELEMENTARY,NO,NO,NO,NO,49.05283835,-122.7139145
2019/2020,3636019,Halls Prairie Elementary,036,Surrey,Public School,18035 8 Ave,Surrey                        ,Standard School                         ,ELEMENTARY,YES,NO,NO,NO,49.0172473,-122.7228608
2019/2020,3636021,Sullivan Elementary,036,Surrey,Public School,6016 152 St,Surrey                        ,Standard School                         ,ELEMENTARY,YES,NO,NO,NO,49.11208309,-122.7998722
2019/2020,3636022,Queen Elizabeth Secondary,036,Surrey,Public School,9457 King George Blvd,Surrey                        ,Standard School                         ,SECONDARY,YES,NO,NO,NO,49.17462301,-122.8473212
2019/2020,3636028,North Surrey Secondary,036,Surrey,Public School,15945 96 Ave,Surrey                        ,Standard School                         ,SECONDARY,YES,NO,NO,NO,49.1783541,-122.7804005
2019/2020,3636029,Harold Bishop Elementary,036,Surrey,Public School,15670 104 Ave,Surrey                        ,Standard School                         ,ELEMENTARY,YES,NO,NO,NO,49.19094714,-122.7875772
2019/2020,3636031,Crescent Park Elementary,036,Surrey,Public School,2440 128 St,Surrey                        ,Standard School                         ,ELEMENTARY,YES,NO,YES,NO,49.04643246,-122.8667353
2019/2020,3636033,Bridgeview Elementary,036,Surrey,Public School,12834 115A Ave,Surrey                        ,Standard School                         ,ELEMENTARY,YES,NO,NO,NO,49.21125227,-122.864734
2019/2020,3636034,J T Brown Elementary,036,Surrey,Public School,12530 60 Ave,Surrey                        ,Standard School                         ,ELEMENTARY,YES,NO,NO,NO,49.11123126,-122.8759073
2019/2020,3636035,Latimer Road Elementary,036,Surrey,Public School,19233 60 Ave,Surrey                        ,Standard School                         ,ELEMENTARY,YES,NO,NO,NO,49.1121027,-122.6898962
2019/2020,3636036,Ray Shepherd Elementary,036,Surrey,Public School,1650 136 St,Surrey                        ,Standard School                         ,ELEMENTARY,YES,NO,NO,NO,49.03203717,-122.844945
2019/2020,3636037,Dr F D Sinclair Elementary,036,Surrey,Public School,7480 128 St,Surrey                        ,Standard School                         ,ELEMENTARY,YES,NO,NO,NO,49.138874,-122.8674379
2019/2020,3636038,Sunnyside Elementary,036,Surrey,Public School,2828 159 St,Surrey                        ,Standard School                         ,ELEMENTARY,YES,NO,NO,NO,49.05338746,-122.7809746
2019/2020,3636039,Surrey Centre Elementary,036,Surrey,Public School,16670 Old Mclellan Rd,Surrey                        ,Standard School                         ,ELEMENTARY,YES,NO,NO,NO,49.1096046,-122.7590217
2019/2020,3636040,K B Woodward Elementary,036,Surrey,Public School,13130 106 Ave,Surrey                        ,Standard School                         ,ELEMENTARY,YES,NO,YES,NO,49.19474819,-122.858985
2019/2020,3636041,Lord Tweedsmuir Secondary,036,Surrey,Public School,6151 180 St,Surrey                        ,Standard School                         ,SECONDARY,YES,YES,NO,NO,49.11497906,-122.7245186
2019/2020,3636043,Green Timbers Elementary,036,Surrey,Public School,8824 144 St,Surrey                        ,Standard School                         ,ELEMENTARY,YES,NO,NO,NO,49.16359817,-122.8227894
2019/2020,3636044,Prince Charles Elementary,036,Surrey,Public School,12405 100 Ave,Surrey                        ,Standard School                         ,ELEMENTARY,YES,NO,NO,NO,49.1855864,-122.8768989
2019/2020,3636045,Johnston Heights Secondary,036,Surrey,Public School,15350 99 Ave,Surrey                        ,Standard School                         ,SECONDARY,YES,NO,NO,NO,49.18201273,-122.7972696
2019/2020,3636047,Guildford Park Secondary,036,Surrey,Public School,10707 146 St,Surrey                        ,Standard School                         ,SECONDARY,YES,NO,NO,NO,49.19721724,-122.8186065
2019/2020,3636049,Semiahmoo Secondary,036,Surrey,Public School,1785 148 St,Surrey                        ,Standard School                         ,SECONDARY,YES,NO,NO,NO,49.0351116,-122.8129712
2019/2020,3636050,Mountainview Montessori,036,Surrey,Public School,15225 98 Ave,Surrey                        ,Standard School                         ,ELEMENTARY,YES,NO,NO,NO,49.18087616,-122.7997724
2019/2020,3636051,A H P Matthew Elementary,036,Surrey,Public School,13367 97 Ave,Surrey                        ,Standard School                         ,ELEMENTARY,YES,NO,NO,NO,49.17955035,-122.8533305
2019/2020,3636053,T E Scott Elementary,036,Surrey,Public School,7079 148 St,Surrey                        ,Standard School                         ,ELEMENTARY,YES,NO,NO,NO,49.13153792,-122.812624
2019/2020,3636054,Mary Jane Shannon Elementary,036,Surrey,Public School,10682 144 St,Surrey                        ,Standard School                         ,ELEMENTARY,YES,NO,NO,NO,49.19671673,-122.8222145
2019/2020,3636055,Lena Shaw Elementary,036,Surrey,Public School,14250 100A Ave,Surrey                        ,Standard School                         ,ELEMENTARY,YES,NO,NO,NO,49.18471705,-122.8274856
2019/2020,3636056,H T Thrift Elementary,036,Surrey,Public School,1739 148 St,Surrey                        ,Standard School                         ,ELEMENTARY,YES,NO,NO,NO,49.03344721,-122.8130131
2019/2020,3636057,William Watson Elementary,036,Surrey,Public School,16450 80 Ave,Surrey                        ,Standard School                         ,ELEMENTARY,YES,NO,NO,NO,49.14774538,-122.7662757
2019/2020,3636058,David Brankin Elementary,036,Surrey,Public School,9160 128 St,Surrey                        ,Standard School                         ,ELEMENTARY,YES,NO,NO,NO,49.16934401,-122.867093
2019/2020,3636059,Ecole Riverdale Elementary,036,Surrey,Public School,14835 108A Ave,Surrey                        ,Standard School                         ,ELEMENTARY,YES,YES,NO,NO,49.20035682,-122.8113941
2019/2020,3636060,Senator Reid Elementary,036,Surrey,Public School,9341 126 St,Surrey                        ,Standard School                         ,ELEMENTARY,YES,NO,NO,NO,49.17272689,-122.8742756
2019/2020,3636061,Martha Currie Elementary,036,Surrey,Public School,5811 184 St,Surrey                        ,Standard School                         ,ELEMENTARY,YES,YES,NO,NO,49.10808859,-122.7136052
2019/2020,3636062,James Ardiel Elementary,036,Surrey,Public School,13751 112 Ave,Surrey                        ,Standard School                         ,ELEMENTARY,YES,NO,NO,NO,49.206609,-122.8411124
2019/2020,3636063,McLeod Road Traditional,036,Surrey,Public School,6325 142 St,Surrey                        ,Standard School                         ,ELEMENTARY,YES,NO,NO,NO,49.11769695,-122.8294005
2019/2020,3636064,Old Yale Road Elementary,036,Surrey,Public School,10135 132 St,Surrey                        ,Standard School                         ,ELEMENTARY,YES,NO,NO,NO,49.18684941,-122.8573334
2019/2020,3636067,Erma Stephenson Elementary,036,Surrey,Public School,10929 160 St,Surrey                        ,Standard School                         ,ELEMENTARY,YES,NO,NO,NO,49.20133285,-122.7793917
2019/2020,3636069,Bear Creek Elementary,036,Surrey,Public School,13780 80 Ave,Surrey                        ,Standard School                         ,ELEMENTARY,YES,NO,NO,NO,49.14696125,-122.8404311
2019/2020,3636070,Peace Arch Elementary,036,Surrey,Public School,15877 Roper Ave,White Rock                    ,Standard School                         ,ELEMENTARY,YES,YES,NO,NO,49.02616171,-122.7831594
2019/2020,3636071,Henry Bose Elementary,036,Surrey,Public School,6550 134 St,Surrey                        ,Standard School                         ,ELEMENTARY,YES,NO,YES,NO,49.12174767,-122.850409
2019/2020,3636072,Newton Elementary,036,Surrey,Public School,13359 81 Ave,Surrey                        ,Standard School                         ,ELEMENTARY,YES,NO,NO,NO,49.15045679,-122.8527542
2019/2020,3636073,Cedar Hills Elementary,036,Surrey,Public School,12370 98 Ave,Surrey                        ,Standard School                         ,ELEMENTARY,YES,NO,NO,NO,49.18000353,-122.8797416
2019/2020,3636077,Royal Heights Elementary,036,Surrey,Public School,11665 97 Ave,Surrey                        ,Standard School                         ,ELEMENTARY,YES,NO,NO,NO,49.1793599,-122.8991614
2019/2020,3636079,L A Matheson Secondary,036,Surrey,Public School,9484 122 St,Surrey                        ,Standard School                         ,SECONDARY,YES,NO,NO,NO,49.17536488,-122.8834549
2019/2020,3636080,Surrey Traditional,036,Surrey,Public School,13875 113 Ave,Surrey                        ,Standard School                         ,ELEMENTARY,YES,NO,NO,NO,49.20818574,-122.8380479
2019/2020,3636081,Holly Elementary,036,Surrey,Public School,10719 150 St,Surrey                        ,Standard School                         ,ELEMENTARY,YES,NO,NO,NO,49.19712687,-122.8073099
2019/2020,3636082,Georges Vanier Elementary,036,Surrey,Public School,6985 142 St,Surrey                        ,Standard School                         ,ELEMENTARY,YES,NO,NO,NO,49.12965525,-122.8297984
2019/2020,3636084,Ellendale Elementary,036,Surrey,Public School,14525 110A Ave,Surrey                        ,Standard School                         ,ELEMENTARY,YES,NO,NO,NO,49.20360536,-122.8198606
2019/2020,3636087,Simon Cunningham Elementary,036,Surrey,Public School,9380 140 St,Surrey                        ,Standard School                         ,ELEMENTARY,YES,YES,NO,NO,49.17310925,-122.8336519
2019/2020,3636089,Jessie Lee Elementary,036,Surrey,Public School,2064 154 St,Surrey                        ,Standard School                         ,ELEMENTARY,YES,NO,YES,NO,49.03966266,-122.7946006
2019/2020,3636090,George Greenaway Elementary,036,Surrey,Public School,17285 61A Ave,Surrey                        ,Standard School                         ,ELEMENTARY,YES,NO,NO,NO,49.11425511,-122.7430891
2019/2020,3636105,Earl Marriott Secondary,036,Surrey,Public School,15751 16 Ave,Surrey                        ,Standard School                         ,SECONDARY,YES,YES,NO,NO,49.03164575,-122.7854438
2019/2020,3636106,Frank Hurt Secondary,036,Surrey,Public School,13940 77 Ave,Surrey                        ,Standard School                         ,SECONDARY,YES,NO,NO,NO,49.14230928,-122.8359391
2019/2020,3636107,Betty Huff Elementary,036,Surrey,Public School,13055 Huntley Ave,Surrey                        ,Standard School                         ,ELEMENTARY,YES,NO,NO,NO,49.17293347,-122.8605046
2019/2020,3636109,Strawberry Hill Elementary,036,Surrey,Public School,7633 124 St,Surrey                        ,Standard School                         ,ELEMENTARY,YES,NO,NO,NO,49.1416582,-122.8795092
2019/2020,3636111,Cindrich Elementary,036,Surrey,Public School,13455 90 Ave,Surrey                        ,Standard School                         ,ELEMENTARY,YES,NO,NO,NO,49.16711827,-122.8506362
2019/2020,3636112,Creekside Elementary,036,Surrey,Public School,13838 91 Ave,Surrey                        ,Standard School                         ,ELEMENTARY,YES,NO,NO,NO,49.16757563,-122.8387905
2019/2020,3636114,Enver Creek Secondary,036,Surrey,Public School,14505 84 Ave,Surrey                        ,Standard School                         ,SECONDARY,YES,NO,NO,NO,49.1558268,-122.8202437
2019/2020,3636116,W E Kinvig Elementary,036,Surrey,Public School,13266 70B Ave,Surrey                        ,Standard School                         ,ELEMENTARY,YES,NO,NO,NO,49.13057771,-122.8544638
2019/2020,3636117,Laronde Elementary,036,Surrey,Public School,1880 Laronde Dr,Surrey                        ,Standard School                         ,ELEMENTARY,NO,YES,NO,NO,49.03567197,-122.8572154
2019/2020,3636118,South Meridian Elementary,036,Surrey,Public School,16244 13 Ave,Surrey                        ,Standard School                         ,ELEMENTARY,YES,NO,NO,NO,49.02569301,-122.7719105
2019/2020,3636122,Don Christian Elementary,036,Surrey,Public School,6256 184 St,Surrey                        ,Standard School                         ,ELEMENTARY,YES,NO,NO,NO,49.11643633,-122.7113974
2019/2020,3636128,Bonaccord Elementary,036,Surrey,Public School,14986 98 Ave,Surrey                        ,Standard School                         ,ELEMENTARY,YES,NO,NO,NO,49.1798866,-122.8064525
2019/2020,3636129,M B Sanford Elementary,036,Surrey,Public School,7318 143 St,Surrey                        ,Standard School                         ,ELEMENTARY,YES,NO,NO,NO,49.13580728,-122.8254577
2019/2020,3636130,Maple Green Elementary,036,Surrey,Public School,14898 Spenser Dr,Surrey                        ,Standard School                         ,ELEMENTARY,YES,NO,NO,NO,49.15705877,-122.8100391
2019/2020,3636131,Hyland Elementary,036,Surrey,Public School,6677 140 St,Surrey                        ,Standard School                         ,ELEMENTARY,YES,NO,NO,NO,49.12377692,-122.8360973
2019/2020,3636132,Kennedy Trail Elementary,036,Surrey,Public School,8305 122A St,Surrey                        ,Standard School                         ,ELEMENTARY,YES,NO,NO,NO,49.15397158,-122.8835928
2019/2020,3636134,Pacific Heights Elementary,036,Surrey,Public School,17148 26 Ave,Surrey                        ,Standard School                         ,ELEMENTARY,YES,NO,NO,NO,49.04863062,-122.7484658
